id,tribuneTheaterId,providerTheaterId,name,address,city,state,zip,distance,lon,lat,theaterChainName,ticketType
1849,5634,,"Regal Ronkonkoma Stadium 9","565 Portion Road",Ronkonkoma,NY,11779,25.4,-73.093938,40.831322,"Regal Cinemas",STANDARD
1826,3088,,"Movieland of Coram","1850 Rt 112",Coram,NY,11727,22.06,-73.015008,40.890012,"Independent Chains",STANDARD
1179,2874,,"Sayville Theatre","103 Railroad Ave.",Sayville,NY,11782,25.12,-73.082889,40.737483,"Independent Chains",STANDARD
2076,8239,2140,"AMC Loews Stony Brook 17","2196 Nesconset Highway","Stony Brook",NY,11790,27.51,-73.126652,40.875348,"AMC Theatres",STANDARD
1175,6590,,"P.J. Cinemas","1068 Route 112","Port Jefferson Station",NY,11776,24.02,-73.0435,40.9216,"Independent Chains",STANDARD
4484,9583,,"Island Cinemas - Mastic","1708 Montauk Highway",Mastic,NY,11950,11.88,-72.837081,40.80569,"Independent Chains",STANDARD
4554,9692,,"Regal Deer Park Stadium 16 & IMAX","1050 Commack Road","Deer Park",NY,11729,34.08,-73.305787,40.765197,"Regal Cinemas",STANDARD
1174,6463,,"Elwood Cinema","1950 East Jericho Turnpike","East Northport",NY,11731,24.14,-73.330967,40.837642,"Independent Chains",STANDARD
1176,2935,,"South Bay Cinemas","495 W. Montauk Hwy","West Babylon",NY,11704,27.24,-73.338898,40.6889,"Independent Chains",STANDARD
321,6016,,"Farmingdale Multiplex Cinemas","1001 Broad Hollow Road",Farmingdale,NY,11735,30.05,-73.42154,40.738138,"National Amusements",STANDARD
175,7055,2162,"AMC Loews Shore 8","37 Wall St.",Huntington,NY,11743,29.16,-73.427811,40.872698,"AMC Theatres",STANDARD
1044,7587,,"UA Farmingdale Stadium 10","20 Michael Avenue",Farmingdale,NY,11735,30.48,-73.425788,40.727503,"United Artists",STANDARD
284,7478,,"Showcase Cinemas Bridgeport","286 Canfield Ave.",Bridgeport,CT,06605,29.7,-73.228002,41.160985,"National Amusements",STANDARD
283,7621,,"Fairfield Cinemas  Bullard Square","40 Blackrock Turnpike",Fairfield,CT,06824,29.6,-73.229249,41.162221,"National Amusements",STANDARD
4172,6012,,"Connecticut Post 14 + Imax","1201 Boston Post Road",Milford,CT,06460,34.32,-73.0387,41.2363,Cinemark,STANDARD
1863,5887,,"Bow Tie Cinemas Marquis 16 & BTX","100 Quarry Road",Trumbull,CT,06611,34.46,-73.184191,41.228564,"Bow-Tie Cinemas",STANDARD
1866,5883,,"Bow Tie Cinemas Royale 6","542 Westport Ave.",Norwalk,CT,06851,27.71,-73.384337,41.126864,"Bow-Tie Cinemas",STANDARD
3048,5981,,"Seaford Cinemas","3951 Merrick Road",Seaford,NY,11783,34.95,-73.4867,40.6661,"Your Neighborhood Theatre",STANDARD
153,8982,2141,"AMC Loews Nassau Metroplex 10","3585 Hempstead Tpke.",Levittown,NY,11756,34.53,-73.506059,40.726601,"AMC Theatres",STANDARD
2399,5884,,"Bow Tie Cinemas SONO Regent 8","64 North Main St.",Norwalk,CT,06854,28.82,-73.419536,41.100733,"Bow-Tie Cinemas",STANDARD
319,6014,,"Broadway Multiplex Cinemas","955 Broadway Mall",Hicksville,NY,11801,34.71,-73.533103,40.774269,"National Amusements",STANDARD
3915,1890,,"Criterion Cinemas","86 Temple Street","New Haven",CT,06510,30.88,-72.928497,41.30468,"Bow-Tie Cinemas",STANDARD
1172,3039,,"Five Star Theatres Bellmore Playhouse","525 Bedford Ave.",Bellmore,NY,11710,34,-73.527603,40.669998,"Independent Chains",STANDARD
216,2664,,"Darien Playhouse","1077 Boston Post Road",Darien,CT,06820,29.9,-73.473581,41.074781,"Independent Chains",STANDARD
699,7429,,"UA Hampton Bays 5","119 West Montauk Hwy","Hampton Bays",NY,11946,6.75,-72.529324,40.876184,"United Artists",STANDARD
2819,8058,,"UA Westbury Stadium 12 & IMAX","7000 Brush Hollow Road",Westbury,NY,11590,32.96,-73.555972,40.778194,"United Artists",STANDARD
3070,6933,,"Bow Tie Cinemas Wilton 4","21 River Road",Wilton,CT,06897,31.78,-73.431308,41.190347,"Bow-Tie Cinemas",STANDARD
1542,5885,,"Bow Tie Cinemas Landmark 9 Stamford","5 Landmark Square",Stamford,CT,06905,30.84,-73.537545,41.054745,"Bow-Tie Cinemas",STANDARD
2141,5004,,"Avon Theatre Film Center, Inc.","272 Bedford Street",Stamford,CT,06901,30.68,-73.538268,41.057132,"Independent Chains",STANDARD
1541,5882,,"Bow Tie Cinemas Majestic 6","118 Summer St.",Stamford,CT,06901,30.86,-73.540846,41.054335,"Bow-Tie Cinemas",STANDARD
166,8686,2146,"AMC Loews Raceway 10","1025 Corporate Drive",Westbury,NY,11590,3.94,-73.596468,40.742383,"AMC Theatres",STANDARD
2178,5880,,"Bow Tie Cinemas New Canaan Playhouse","89 Elm St.","New Canaan",CT,06840,34.24,-73.4941,41.1467,"Bow-Tie Cinemas",STANDARD
154,7952,2144,"AMC Loews Roosevelt Field 8","630 Old Country Road","Garden City",NY,11530,4.82,-73.615179,40.739714,"AMC Theatres",STANDARD
1133,8676,,"Bow Tie Cinemas Grand Ave","1849 Grand Ave.",Baldwin,NY,11510,8.63,-73.606947,40.665849,"Bow-Tie Cinemas",STANDARD
172,6737,,"Glen Cove 6","5 School St.","Glen Cove",NY,11542,7.63,-73.631541,40.865976,"Independent Chains",STANDARD
1144,5910,,"Bow Tie Roslyn Cinemas","20 Tower Place",Roslyn,NY,11576,5.92,-73.650183,40.799832,"Bow-Tie Cinemas",STANDARD
1346,5881,,"Bow Tie Cinemas Plaza 3","2 Railroad Ave.",Greenwich,CT,06830,33.15,-73.624985,41.021489,"Bow-Tie Cinemas",STANDARD
1134,6934,,"Bow Tie Cinemas Herricks Cinema","3324 Hillside Ave.","New Hyde Park",NY,11040,6.58,-73.660334,40.752565,"Bow-Tie Cinemas",STANDARD
171,7633,2158,"AMC Loews Fantasy 5","18 N. Park Ave.","Rockville Centre",NY,11570,10.14,-73.645225,40.656818,"AMC Theatres",STANDARD
1132,5914,,"Bow Tie Cinemas Franklin Square","989 Hempstead Turnpike","Franklin Square",NY,11010,8.75,-73.676787,40.707308,"Bow-Tie Cinemas",STANDARD
279,7173,,"Rave Motion Pictures West Springfield 15","864 Riverdale Street","West Springfield",MA,01089,32.6,-72.627826,42.127818,Cinemark,STANDARD
885,8345,,"Cinemark Enfield 12","90 Elm St.",Enfield,CT,06082,29.96,-72.580946,41.994757,Cinemark,STANDARD
2630,9195,,"Rave Motion Pictures Eastfield 16","1655 Boston Rd",Springfield,MA,01129,34.76,-72.486267,42.140664,Cinemark,STANDARD
1819,4121,,"Tower Theatre - South Hadley","19 College Street","South Hadley",MA,01075,31.71,-72.576271,42.258564,"Independent Chains",STANDARD
877,6886,,"Digiplex Bloomfield","863 Park Ave",Bloomfield,CT,06002,30.42,-72.735672,41.831313,"Carmike Cinemas",STANDARD
817,7475,,"Rave Buckland Hills 18","99 Red Stone Rd.",Manchester,CT,06045,32.33,-72.54785,41.801054,Cinemark,STANDARD
4302,2022,,"Parkade Cinemas","308 Broad St",Manchester,CT,06040,32.1,-72.539978,41.778226,"Independent Chains",STANDARD
3104,7064,,"Cinemark At Hampshire Mall","367 Russell St.",Hadley,MA,01035,26.15,-72.547842,42.356368,Cinemark,STANDARD
5253,10682,,"Spotlight Theatres Front Street","39 Front St.",Hartford,CT,06103,30.73,-72.6702,41.7627,"Spotlight Theatres",STANDARD
876,5157,,"Real Art Ways Theatre","56 Arbor St.",Hartford,CT,06106,29.1,-72.703396,41.759394,"Independent Chains",STANDARD
882,6098,,"CineStudio Theatre","300 Summit Street",Hartford,CT,06106,29.26,-72.691629,41.74736,"Independent Chains",STANDARD
4426,9497,,"Cinépolis Blue Back Square","42 South Main St.","West Hartford",CT,06107,27.41,-72.74164,41.760185,"Cinepolis Luxury Cinemas",STANDARD
2696,452,,"Amherst Cinema","28 Amity Street",Amherst,MA,01002,27.9,-72.520517,42.375703,"Independent Chains",STANDARD
4947,10302,,"Cinema City at the Palace","330 New Park Ave.",Hartford,CT,06106,28.3,-72.7133,41.747,"Bow-Tie Cinemas",STANDARD
3095,5888,,"Palace 17 and Odyssey Theater","330 New Park Ave",Hartford,CT,06106,28.31,-72.712348,41.747464,"Bow-Tie Cinemas",STANDARD
2907,5984,,Simsbury,"530 Bushy Hill Road",Simsbury,CT,06070,24.96,-72.863399,41.819424,Hoyts,STANDARD
287,7309,,"Starplex Berlin 12","19 Frontage Rd",Berlin,CT,06037,24.1,-72.742883,41.629182,"Starplex Cinemas",STANDARD
6057,11464,,"Picture Show at Berlin","19 Frontage Road",Kensington,CT,06037,24.1,-72.742883,41.629182,"Picture Show Entertainment",STANDARD
2900,7319,2628,"AMC Loews Plainville 20","220 New Britain Avenue",Plainville,CT,06062,19.97,-72.845052,41.674436,"AMC Theatres",STANDARD
5969,11405,,"AMC Dine-in Holly Spring 9","320 Grand Hill Place","Holly Springs",NC,27540,32.57,-73.042795,41.911034,"AMC Theatres",STANDARD
5631,11094,,"Apple Cinemas Barkhamsted","380 New Hartford Road",Barkhamsted,CT,06063,32.57,-73.042795,41.911034,"Independent Chains",STANDARD
874,5168,,"Gilson Theatre","354 Main Street",Winsted,CT,06098,31.88,-73.069567,41.921244,"Independent Chains",STANDARD
5315,10752,,"Metro Movies 12","140 Main St.",Middletown,CT,06457,34.11,-72.646667,41.559563,"Independent Chains",STANDARD
4036,4085,,"Mansfield Movieplex","East Brook Mall","Mansfield Center",CT,06250,24.11,-72.201398,41.734574,"Zurich Cinemas",STANDARD
5534,10967,,"Cinemagic in Sturbridge","100 Charlton Road",Sturbridge,MA,01566,30.34,-72.060624,42.125562,"Independent Chains",STANDARD
2365,4027,,"Cinerom Digital Movieplex Torrington","89 Farley Place",Torrington,CT,06790,25.48,-73.123873,41.813255,"Carmike Cinemas",STANDARD
3584,1973,,"Greenfield Garden Cinema","351 Main Street",Greenfield,MA,01301,23.29,-72.5997,42.5878,"Independent Chains",STANDARD
1095,4025,,"Gardner Cinemas","336 Timpany Blvd.",Gardner,MA,01440,30.99,-71.988741,42.559515,"Independent Chains",STANDARD
310,7477,,"Showcase Cinemas Worcester North","135 Brooks St.",Worcester,MA,01606,25.32,-71.801598,42.3139,"National Amusements",STANDARD
2800,1852,,"West Boylston Cinema","101 West Boylston","West Boylston",MA,01583,28.36,-71.7844,42.3568,"Independent Chains",STANDARD
1094,237,,"Elm DraughtHouse Theatre","35 Elm St.",Millbury,MA,01527,33.79,-71.758339,42.191975,"Independent Chains",STANDARD
1710,4659,,"Regal Berkshire Mall 10","Route 8 and Old State Road",Lanesboro,MA,01237,28.18,-73.207371,42.493224,"Regal Cinemas",STANDARD
4861,10158,,"The Beacon Cinema","57 North Street",Pittsfield,MA,01201,24.47,-73.253737,42.449435,"Independent Chains",STANDARD
2808,6118,,"Triplex Cinema","70 Railroad Street","Great Barrington",MA,01230,29.78,-73.362968,42.195217,"Independent Chains",STANDARD
2751,2580,,Moviehouse,"48 Main St.",Millerton,NY,12546,27.88,-73.509976,41.953446,"Independent Chains",STANDARD
4322,9284,,"North Adams Movieplex","86 Main Street","North Adams",MA,01247,32.68,-73.11116,42.697026,"Independent Chains",STANDARD
2809,5161,,"Images Cinema","50 Spring St.",Williamstown,MA,01267,32.94,-73.204229,42.710738,"Independent Chains",STANDARD
904,212,,"Crandell Theatre","46-48 Main Street",Chatham,NY,12037,26.97,-73.595632,42.363306,"Independent Chains",STANDARD
2810,6197,,"Bennington Cinemas","319 Northside Drive",Bennington,VT,05201,22.85,-73.216088,42.903682,"Independent Chains",STANDARD
2777,3009,,"Gallery Cinemas","396 Old Hartford Road",Colchester,CT,06415,30.68,-72.3516,41.5812,"Independent Chains",STANDARD
1305,2219,,"Cinema World","476 John Fitch Hwy",Fitchburg,MA,01420,33.39,-71.773417,42.583829,"Independent Chains",STANDARD
159,6598,,"EMC Leominster 10","45 Sack Blvd.",Leominster,MA,01453,24.56,-71.746221,42.531237,"Entertainment Cinemas",STANDARD
6083,11494,,"River Street Theatre","6 River Street",Jaffrey,NH,03452,25.27,-72.023747,42.814646,"Independent Chains",STANDARD
2798,474,,"Strand Theatre - Clinton","58 High Street",Clinton,MA,01510,33.49,-71.684948,42.417054,"Independent Chains",STANDARD
579,7899,,"Regal Westborough Stadium 12","231 Turnpike Road",Westborough,MA,01581,25.98,-71.635398,42.287025,"Regal Cinemas",STANDARD
497,7579,,"Regal Solomon Pond Stadium 15","591 Donald Lynch Blvd.",Marlborough,MA,01752,30.76,-71.613876,42.356055,"Regal Cinemas",STANDARD
5745,11187,,"Fine Arts Theatre Place","19 Summer Street",Maynard,MA,01754,33.17,-71.451874,42.433504,"Independent Chains",STANDARD
724,7748,,"Regal Bellingham Stadium 14","259 Hartford Ave.",Bellingham,MA,02019,34.78,-71.460233,42.110399,"Regal Cinemas",STANDARD
463,7976,810,"AMC Framingham 16","22 Flutie Pass",Framingham,MA,01701,34.25,-71.390731,42.302999,"AMC Theatres",SELECT_SEATING
2803,475,,"Colonial Theatre NH","95 Main Street",Keene,NH,03431,30.36,-72.2782,42.9317,"Independent Chains",STANDARD
1183,2468,,"Regent Square Theatre","1035 S. BRADDOCK AVENUE",Pittsburgh,PA,15218,30.36,-79.8947,40.4337,"Independent Chains",STANDARD
286,9189,,"Southington 12","1821 Meriden-Waterbury Rd",Southington,CT,06489,34.12,-72.907205,41.565356,"Starplex Cinemas",STANDARD
878,6322,,"Bantam Cinema","115 Bantam Lake Road",Bantam,CT,06750,17.64,-73.235736,41.720628,"Independent Chains",STANDARD
897,5659,,"Regal East Greenbush 8","279 Troy Road",Rensselaer,NY,12144,32.37,-73.700956,42.640013,"Regal Cinemas",STANDARD
2813,6472,,"Hudson Movieplex","350 Fairview Ave",Hudson,NY,12534,17.2,-73.759134,42.272473,"Independent Chains",STANDARD
5656,11124,,"Time & Space Limited/TSL","434 Columbia Street",Hudson,NY,12534,15.26,-73.7864,42.251011,"Independent Chains",STANDARD
917,3035,,"Madison Theatre","1036 Madison Avenue",Albany,NY,12208,31.91,-73.789613,42.664513,"Independent Chains",STANDARD
4474,9566,,"Regal Colonie Center Stadium 13","131 Colonie Center",Albany,NY,12205,29.45,-73.816173,42.710524,"Regal Cinemas",STANDARD
895,6811,,"Regal Crossgates Stadium 18 & IMAX","1 Crossgates Mall Road",Albany,NY,12203,31.46,-73.852512,42.690721,"Regal Cinemas",STANDARD
1246,1096,,"Bank Street Theatre","46 Bank Street","New Milford",CT,06776,27.35,-73.412258,41.577454,"Independent Chains",STANDARD
1823,3046,,"Lyceum Cinemas","7270 South Broadway","Red Hook",NY,12571,20.26,-73.883657,41.98189,"Independent Chains",STANDARD
2285,2830,,"Orpheum Theatre - Saugerties","Main Street",Saugerties,NY,12477,34.4,-73.951885,42.07788,"Independent Chains",STANDARD
1852,7747,,"Regal Hudson Valley Mall 12","1300 Ulster Ave. #242",Kingston,NY,12401,34.96,-73.984959,41.966943,"Regal Cinemas",STANDARD
3876,6657,,"Village Picture Shows","263 Depot Street","Manchester Center",VT,05255,27.08,-73.053031,43.175577,"Independent Chains",STANDARD
4779,10021,,"Peterborough Community Theater","6 School St.",Peterborough,NH,03458,29.62,-71.950649,42.876723,"Independent Chains",STANDARD
3420,1963,,"Chunky's Cinema Pub -  Nashua","151 Coliseum Ave.",Nashua,NH,03063,34.72,-71.4984,42.7598,"Independent Chains",STANDARD
500,7505,812,"AMC Tyngsboro","440 Middlesex Road",Tyngsboro,MA,01879,34.92,-71.441015,42.697757,"AMC Theatres",SELECT_SEATING
3972,2318,,"Merrimack Cinemagic","11 Executive Park Drive",Merrimack,NH,03054,32.03,-71.497135,42.846616,"Zyacorp Entertainment",STANDARD
693,7041,,"Showcase Cinemas Lowell","32 Reiss Ave",Lowell,MA,01853,22.56,-71.322998,42.610783,"National Amusements",STANDARD
5627,11090,,"The Luna Theater","250 Jackson St. Unit 402",Lowell,MA,01852,33.16,-71.3122,42.6415,"Independent Chains",STANDARD
2801,1853,,"Chunky's Pelham Cinema & Pub","150 Bridge Street",Pelham,NH,03076,29.14,-71.319055,42.723297,"Independent Chains",STANDARD
6142,11564,,"Chunky's Cinema Pub","707 Huse Road",Manchester,NH,03103,26.83,-71.432453,42.951226,"Independent Chains",STANDARD
5566,11013,,"Londonderry 10","16 Orchard View Drive",Londonderry,NH,03053,25.03,-71.3543,42.8606,"Carmike Cinemas",STANDARD
3701,6281,,"Derry Cinemas","10 Ashleigh Drive",Derry,NH,03038,34.97,-71.336696,42.899988,"Independent Chains",STANDARD
465,6245,,"Lexington Venue","1794 Massachussetts Ave.",Lexington,MA,02420,32.71,-71.228203,42.447899,"Independent Chains",STANDARD
461,8863,814,"AMC Burlington 10","20 South Ave.",Burlington,MA,01803,30.48,-71.21715,42.479718,"AMC Theatres",SELECT_SEATING
221,8343,,"Showcase Cinemas Woburn","25 Middlesex Canal Parkway",Woburn,MA,01801,29.23,-71.160824,42.49726,"National Amusements",STANDARD
2901,7040,,"Showcase Cinemas Lawrence","6 Chickering Street",Lawrence,MA,01843,25.75,-71.143668,42.689102,"National Amusements",STANDARD
455,7897,,"Regal Hooksett 8","100 Technology Drive",Hooksett,NH,03106,28.1,-71.465206,43.046328,"Regal Cinemas",STANDARD
4387,9435,,"Hooksett Cinemagic & IMAX","1226 Hooksett Road",Hooksett,NH,03106,34.29,-71.439042,43.041266,"Zyacorp Entertainment",STANDARD
3076,9083,2660,"AMC Loews Methuen 20","90 Pleasant Valley St.",Methuen,MA,01844,33.13,-71.157342,42.74424,"AMC Theatres",SELECT_SEATING
457,6525,,"Capitol Theatre - Arlington","204 Massachussetts Ave.",Arlington,MA,02474,32.12,-71.142675,42.40591,"Independent Chains",STANDARD
70,6066,,"Freshpond 10","168 Alwife Brook Parkway",Cambridge,MA,02138,33.15,-71.138424,42.391277,"Independent Chains",STANDARD
2799,1714,,"Chunky's Haverhill Cinema & Pub","371 Lowell Avenue",Haverhill,MA,01832,30.16,-71.116637,42.775212,"Independent Chains",STANDARD
481,5179,,"Somerville Theatre","55 Davis Square",Somerville,MA,02144,32.83,-71.122887,42.396736,"Independent Chains",STANDARD
453,6097,,"Brattle Theatre","40 Brattle St.",Cambridge,MA,02138,34.42,-71.1213,42.373699,"Independent Chains",STANDARD
459,5165,,"Dedham Community Theatre","580 High St.",Dedham,MA,02026,31.97,-71.173155,42.247976,"Independent Chains",STANDARD
5492,10934,504,"AMC Assembly Row 12","395 Artisan Way",Somerville,MA,02145,33.21,-71.079347,42.395091,"AMC Theatres",SELECT_SEATING
3038,5658,,"Regal Fenway Stadium 13","201 Brookline Ave",Boston,MA,02115,33.6,-71.101653,42.344474,"Regal Cinemas",STANDARD
3226,9277,2657,"AMC Loews Boston Common 19","175 Tremont Street",Boston,MA,02111,33.17,-71.06417,42.353212,"AMC Theatres",E_TICKET
222,7618,,"Showcase Cinemas de Lux Revere","565 Squire Road",Revere,MA,02151,34.65,-71.020026,42.432449,"National Amusements",STANDARD
460,7504,813,"AMC Braintree","121 Grandview Road",Braintree,MA,02184,33.65,-71.033059,42.218356,"AMC Theatres",SELECT_SEATING
71,7490,2790,"AMC Loews Liberty Tree Mall 20","100 Independence Way",Danvers,MA,01923,32.29,-70.940765,42.553223,"AMC Theatres",E_TICKET
2722,3058,,"Hollywood Hits Theatre","7 Hutchinson Drive",Danvers,MA,01923,32.24,-70.932021,42.553756,"Independent Chains",STANDARD
4218,2859,,CinemaSalem,"1 E. India Square",Salem,MA,01970,34.31,-70.8822,42.5238,"Independent Chains",STANDARD
4155,2390,,"Cinemaworld Lincoln","622 George Washington Hwy. Lincoln Mall",Lincoln,RI,02865,34.41,-71.477611,41.939311,Cinemaworld,STANDARD
309,9010,,"Showcase Cinemas North Attleboro","640 South Washington St.","North Attleboro",MA,02760,31.99,-71.342055,41.954254,"National Amusements",STANDARD
2764,8232,,"Providence Place Cinemas 16","10 Providence Place",Providence,RI,02903,31.94,-71.416717,41.827085,"National Amusements",STANDARD
1024,228,,"Avon Cinema","260 Thayer Street",Providence,RI,02906,32.7,-71.400873,41.828855,"Independent Chains",STANDARD
1025,2442,,"Cable Car","204 S Main",Providence,RI,02903,32.29,-71.405486,41.823107,"Independent Chains",STANDARD
692,8346,,"Showcase Cinemas Seekonk Rt. 6","100 Commerce Way",Seekonk,MA,02771,28.8,-71.323384,41.796585,"National Amusements",STANDARD
3214,5148,,"Showcase Cinemas Warwick Mall","400 Bald Hill Road",Warwick,RI,02886,26.01,-71.473408,41.722036,"National Amusements",STANDARD
98,8347,,"Showcase Warwick","1200 Quaker Lane","East Greenwich",RI,02818,23.66,-71.495861,41.66397,"National Amusements",STANDARD
3142,4662,,"Regal Swansea Stadium 12","207 Swansea Mall Drive",Swansea,MA,02777,33.97,-71.213636,41.752226,"Regal Cinemas",STANDARD
475,8199,,"Regal Silver City Galleria 10","2 Galleria Mall Drive Suite 2832",Taunton,MA,02780,18.73,-71.051159,41.864944,"Regal Cinemas",STANDARD
471,7776,,"East Bridgewater Cinema 6","225 Bedford St.","East Bridgewater",MA,02333,27.17,-70.960175,42.026504,"South Shore Cinemas",STANDARD
454,9139,,"Cameo Theatres 1 & 2","14 Columbian St.","South Weymouth",MA,02190,33.98,-70.951467,42.174561,"South Shore Cinemas",STANDARD
4788,10038,,"Patriot Cinemas at Hingham Shipyard","25 Shipyard Drive",Hingham,MA,02043,34.96,-70.921876,42.251268,"Patriot Cinemas",STANDARD
4008,2319,,"Digiplex Lisbon 12","162 River Road",Lisbon,CT,06351,34.48,-71.990275,41.581544,"Carmike Cinemas",STANDARD
466,8975,,"Patriot Loring Hall Cinema","65 Main St.",Hingham,MA,02043,25.74,-70.888183,42.241131,"Patriot Cinemas",STANDARD
1099,2686,,"Stage II Cinema Pub","109 Main Street",Amesbury,MA,01913,26,-70.9315,42.856,"Independent Chains",STANDARD
467,207,,"Newburyport Screening Room","82 State St.",Newburyport,MA,01950,27.55,-70.870908,42.80938,"Independent Chains",STANDARD
3126,5184,,"Cinemagic Salisbury","6 Merrill Street",Salisbury,MA,01952,25.99,-70.900011,42.843501,"Zyacorp Entertainment",STANDARD
831,6821,,"Cinema 95","201 Elm St.",Salisbury,MA,01952,25.89,-70.8956,42.8442,"Independent Chains",STANDARD
3473,8976,,"Patriot Cinemas at Hanover Mall","1775 Washington Street",Hanover,MA,02339,33.67,-70.838535,42.144841,"Patriot Cinemas",STANDARD
1096,2807,,"Gloucester Cinema 3","74 Essex Ave.",Gloucester,MA,01930,32.33,-70.682848,42.612172,"Independent Chains",STANDARD
5249,10678,,"O'Neil Cinemas at Brickyard Square","24 Calef Highway",Epping,NH,03042,33.19,-71.0739,43.0231,"O'Neil Cinemas",STANDARD
5469,10911,,"Cinemagic Stadium 10","2454 Lafayette Rd",Portsmouth,NH,03801,27.26,-70.7824,43.0337,"Independent Chains",STANDARD
834,8417,,"Fox Run Stadium 15 & RPX","45 Gosling Road",Newington,NH,03801,23.62,-70.800938,43.094618,"Regal Cinemas",STANDARD
4856,10151,,"BarnZ's Barrington Cinema","586 Calef Highway, Suite One",Barrington,NH,03825,23.64,-70.998397,43.206925,"Independent Chains",STANDARD
3851,4901,,"Mill Wharf Cinema","1 Mill Wharf Plaza",Scituate,MA,02066,27.71,-70.724359,42.195055,"South Shore Cinemas",STANDARD
472,8735,,"Regal Independence Mall 14","101 Independence Mall Way",Kingston,MA,02364,33.76,-70.716784,41.968904,"Regal Cinemas",STANDARD
3645,2133,,"Flagship Cinemas Wareham 8","39 Doty Street","West Wareham",MA,02576,33.04,-70.76884,41.804592,"Flagship Cinemas",STANDARD
3131,6079,,"Flagship Cinemas New Bedford","500 Kings Hwy","New Bedford",MA,02745,26.22,-70.9409,41.673359,"Flagship Cinemas",STANDARD
3223,3985,,"Heritage Theaters","280 Rt. 130",Sandwich,MA,02563,31.65,-70.490515,41.711134,"Independent Chains",STANDARD
473,7580,,"Regal Mashpee Commons 6","11 Steeple St.",Mashpee,MA,02649,31.62,-70.490481,41.616068,"Regal Cinemas",STANDARD
2763,7019,,"Regal Cape Cod Mall Stadium 12","Rt 28 ",Hyannis,MA,02601,32.69,-70.2878,41.6652,"Regal Cinemas",STANDARD
4629,9812,,"Cape Cinema","35 Hope Lane",Dennis,MA,02638,6.69,-70.193421,41.740342,"Independent Chains",STANDARD
720,8558,876,"AMC N. Dartmouth Mall 12","140 N. Dartmouth Mall","North Dartmouth",MA,02747,24.92,-70.9906,41.6408,"AMC Theatres",STANDARD
4772,10012,,"Falmouth Cinema Pub","137 Teaticket Highway",Falmouth,MA,02541,33.91,-70.595913,41.561884,"Entertainment Cinemas",STANDARD
476,6277,,"Entertainment Cinemas South Dennis","2-6 Enterprise Road","South Dennis",MA,02660,5.48,-70.150529,41.692757,"Entertainment Cinemas",STANDARD
2397,4021,,"Wellfleet Cinemas","51 State Hwy Rte 6",Wellfleet,MA,02667,20.46,-69.987999,41.878799,"Independent Chains",STANDARD
5423,10860,,"Chatham Orpheum Theater","637 Main Street",Chatham,MA,02633,14.59,-69.9602,41.6823,"Independent Chains",STANDARD
1027,5982,,"Island Cinemas 10","866 W. Main Rd.",Middletown,RI,02842,34.19,-71.283454,41.521824,"Boston Culinary Group",STANDARD
1029,2444,,"Jane Pickens Theatre","49 Touro Street",Newport,RI,02840,32.99,-71.31377,41.489684,"Independent Chains",STANDARD
2804,476,,"Starlight Theater and Cafe","1 Union Street",Nantucket,MA,02554,26.39,-70.097823,41.28317,"Independent Chains",STANDARD
3532,7471,,"Entertainment Cinemas South Kingstown 8","30 Village Square Dr.","South Kingstown",RI,02879,29.85,-71.469922,41.454937,"Boston Culinary Group",STANDARD
2306,4661,,"Regal Stonington 10","85 Voluntown Road",Pawcatuck,CT,06379,34.51,-71.846,41.405,"Regal Cinemas",STANDARD
2179,3896,,"Mystic Luxury Cinema","27 Coogan Blvd",Mystic,CT,06355,32.79,-71.958262,41.373357,"Independent Chains",STANDARD
884,6913,,"Regal Waterford 9","123 Cross Rd.",Waterford,CT,06385,32.64,-72.161551,41.372865,"Regal Cinemas",STANDARD
2776,2956,,"Niantic Cinema","279 Main Street",Niantic,CT,06357,28.88,-72.194165,41.323326,"Independent Chains",STANDARD
2478,3191,,"Marquee Westbrook Cinemas","314 Flatrock Place",Westbrook,CT,06498,33.99,-72.426714,41.289326,"Marquee Cinemas",STANDARD
112,7151,,"UA East Hampton 6","30 Main St.","East Hampton",NY,11937,24.88,-72.185444,40.963304,"United Artists",STANDARD
4551,9687,,"Red River Theatres","11 S. Main St.",Concord,NH,03301,30.52,-71.535212,43.203811,"Independent Chains",STANDARD
456,7146,,"Regal Concord 10","282 Loudon Road",Concord,NH,03301,34.03,-71.485912,43.225011,"Regal Cinemas",STANDARD
4604,9776,,"Smitty's Cinema","630 W. Main St.",Tilton,NH,03276,21.44,-71.619508,43.44672,"Independent Chains",STANDARD
3208,3017,,"Smitty's Sanford Cinema & Pub","1364 Main Street",Sanford,ME,04073,30.04,-70.745151,43.414745,"Independent Chains",STANDARD
6074,11481,,"The Flying Monkey Movie House & Performance Center","39 Main Street",Plymouth,NH,03264,31.63,-71.687936,43.755618,"Independent Chains",STANDARD
4449,9530,,"BarnZ's Meredith Cinema","38 Route 25 Unit D",Meredith,NH,03253,31.04,-71.457703,43.685699,"Independent Chains",STANDARD
832,8090,,"Gilford Cinema 8","9 Old Lake Shore Road",Gilford,NH,03249,34.07,-72.3202,43.364386,"Boston Culinary Group",STANDARD
1795,5980,,"Claremont Cinema 6","345 Washington Street",Claremont,NH,03743,34.07,-72.3202,43.364386,"Boston Culinary Group",STANDARD
158,6263,,"EMC Lebanon 6","36 U.S. Highway",Lebanon,NH,03766,25.95,-72.28976,43.636772,"Entertainment Cinemas",STANDARD
2792,1713,,"The Nugget Theatre","57 S. Main Street",Hanover,NH,03755,24.61,-72.289491,43.700667,"Independent Chains",STANDARD
4099,1645,,"Springfield Cinemas 3","26 Main St.",Springfield,VT,05156,34.48,-72.481415,43.299355,"Independent Chains",STANDARD
4068,1799,,"Lincoln Cinema IV","Main Street Route 112",Lincoln,NH,03251,29.63,-71.669816,44.041307,"Independent Chains",STANDARD
5307,10744,,"BarnZ's Lincoln Cinema","24 Lumber Yard Road",Lincoln,NH,03251,29.55,-71.6701,44.0424,"Independent Chains",STANDARD
1801,6938,,"Mt. Valley Mall Theatre","32 Mt. Valley Blvd.","North Conway",NH,03860,34.97,-71.154049,44.056785,"Boston Culinary Group",STANDARD
5400,10838,,"The Colonial",2050,Bethlehem,NH,03574,13.14,-71.690296,44.28003,"Independent Chains",STANDARD
4664,9863,,"Star 3 Cinemas","23 Hastings St","Saint Johnsbury",VT,05819,16.98,-72.016341,44.417561,"Independent Chains",STANDARD
4671,9873,,"Catamount Arts","115 Eastern Avenue","Saint Johnsbury",VT,05819,17.06,-72.018234,44.418228,"Independent Chains",STANDARD
5935,11366,,"The Gem","23 Cross Street",Bethel,ME,04217,33.71,-70.7914,44.4114,"Independent Chains",STANDARD
3062,1243,,"Paramount Twin Cinema","241 N. Main St.",Barre,VT,05641,22.83,-72.503878,44.199441,"Independent Chains",STANDARD
4665,9864,,"Savoy Theater","26 Main St",Montpelier,VT,05602,22.43,-72.576484,44.25906,"Independent Chains",STANDARD
1941,1834,,"Capitol Theatre - Montpelier","93 State St",Montpelier,VT,05602,22.41,-72.578329,44.261004,"Independent Chains",STANDARD
4654,9853,,"The Magic Lantern","9 Depot Street",Bridgton,ME,04009,12.83,-70.7075,44.0539,"Independent Chains",STANDARD
4874,10180,,"Flagship Cinemas Rutland","101 Merchants Row",Rutland,VT,05701,27.38,-72.979302,43.604186,"Flagship Cinemas",STANDARD
5045,10422,,"Playhouse Movie Theatre","11 South Main St.",Randolph,VT,05060,29.59,-72.665248,43.921761,"Independent Chains",STANDARD
827,6062,,"Smitty's Cinema - Biddeford","420 Alfred Street",Biddeford,ME,04005,16.82,-70.479691,43.482347,"Independent Chains",STANDARD
5339,5411,,"Smitty's Cinema Pub","765 Roosevelt Trail",Windham,ME,04062,31.95,-70.4497,43.8497,"Independent Chains",STANDARD
3128,4039,,"Cinemagic & IMAX in Saco","779 Portland Rd.",Saco,ME,04072,31.02,-70.424329,43.528608,"Zyacorp Entertainment",STANDARD
4224,2392,,"Cinemagic in Westbrook","183 County Road",Westbrook,ME,04092,29.39,-70.350346,43.651351,"Zyacorp Entertainment",STANDARD
4572,9716,,"Cinemagic Grand Stadium at Clarks Pond","333 Clarks Pond Parkway","South Portland",ME,04106,28.9,-70.326823,43.631836,"Zyacorp Entertainment",STANDARD
2675,9256,,"Patriot/Nickelodeon Cinema 1-6","1 Temple Street",Portland,ME,04101,33.35,-70.255809,43.657413,"Patriot Cinemas",STANDARD
6061,11468,,"Flagship Cinemas Falmouth","206 US Route 1",Falmouth,ME,04105,34.52,-70.235061,43.720899,"Flagship Cinemas",STANDARD
829,6142,,"Auburn 10","730 Centre Street",Auburn,ME,04210,32.61,-70.226229,44.12743,"Flagship Cinemas",STANDARD
3132,4152,,"Flagship Cinemas Lewiston","855 Lisbon St",Lewiston,ME,04240,34.61,-70.204139,44.082207,"Flagship Cinemas",STANDARD
5117,10520,,"Nordica Theatre","1 Freeport Village Station Suite 130 S",Freeport,ME,04032,24.01,-70.102639,43.856033,"Your Neighborhood Theatre",STANDARD
2719,2565,,"Evening Star","149 Maine St.",Brunswick,ME,04011,16.02,-69.963695,43.914822,"Independent Chains",STANDARD
6072,11479,,"Smitty's Cinema Topsham","65 Topsham Fair Mall Road",Topsham,ME,04086,16.3,-69.981972,43.937578,"Independent Chains",STANDARD
828,7018,,"Regal Brunswick 10","19 Gurnet St.",Brunswick,ME,04011,34.08,-69.912175,43.905856,"Regal Cinemas",STANDARD
4991,10359,,"The Harbor Theatre","185 Townsend Avenue","Boothbay Harbor",ME,04538,32.83,-69.626602,43.860802,"Independent Chains",STANDARD
825,8200,,"Regal Augusta 10","23 Market Place Drive",Augusta,ME,04330,9.42,-69.772697,44.335098,"Regal Cinemas",STANDARD
3924,1416,,"Strand Cinema","Court Street",Skowhegan,ME,04976,22,-69.7176,44.7666,"Independent Chains",STANDARD
830,2024,,"Flagship Cinemas Waterville","247 Kenedy Memorial Drive",Waterville,ME,04901,6.53,-69.667008,44.54445,"Flagship Cinemas",STANDARD
2721,2847,,"Railroad Square Cinema","17 Railroad Square",Waterville,ME,04901,7.63,-69.629663,44.556612,"Independent Chains",STANDARD
1829,3149,,"Flagship Cinemas 10","9 Moody Dr",Thomaston,ME,04861,33.36,-69.1586,44.0938,"Flagship Cinemas",STANDARD
4636,9821,,"Strand Theatre - Rockland","345 Main St.",Rockland,ME,04841,33.22,-69.109035,44.10315,"Independent Chains",STANDARD
2602,1522,,"Colonial Theatre - Belfast","163 High Street",Belfast,ME,04915,32.72,-69.007556,44.426708,"Independent Chains",STANDARD
826,7777,,"Bangor Mall Cinemas 10","557 Stillwater Ave.",Bangor,ME,04401,32.1,-68.752588,44.827891,"Boston Culinary Group",STANDARD
4653,9852,,"Hollywood Cinemas 7 ","268 Odlin Road",Bangor,ME,04401,28.45,-68.809673,44.790818,"Independent Chains",STANDARD
3286,1956,,"Spotlight Cinemas","6 Stillwater Ave.",Orono,ME,04473,31.82,-68.69127,44.90564,"Independent Chains",STANDARD
2935,493,,"Alamo Theatre","85 Main St.",Bucksport,ME,04416,26.53,-68.793522,44.571653,"Independent Chains",STANDARD
5713,9539,,"Criterion Theatre","35 Cottage Street","Bar Harbor",ME,04609,32.38,-68.206082,44.389682,"Independent Chains",STANDARD
3874,5042,,"Crockett Cinemas","2128 N. Locust Ave.",Lawrenceburg,TN,38464,32.41,-68.20597,44.387752,"Independent Chains",STANDARD
4656,9855,,"Reel Pizza Cinerama","33 Kennebec Place","Bar Harbor",ME,04609,32.41,-68.206028,44.387711,"Independent Chains",STANDARD
2020,1497,,"State Cinemas - Calais","239 Main St.",Calais,ME,04619,28.08,-67.281094,45.18876,"Independent Chains",STANDARD
2022,1143,,Temple,"Market Square",Houlton,ME,04730,30.94,-67.840665,46.1256,"Independent Chains",STANDARD
2133,1688,,"Bijou Cineplex 4","4 Portland St.",Morrisville,VT,05661,19.97,-72.598544,44.563334,"Independent Chains",STANDARD
891,7898,,"Clifton Park Stadium 10 and RPX","22 Clifton Park Country Rd.","Clifton Park",NY,12065,19.55,-73.779513,42.857635,"Regal Cinemas",STANDARD
5421,10858,,"Wilton Mall Cinemas","3065 Route 50","Saratoga Springs",NY,12866,27.59,-73.739171,43.101312,"Bow-Tie Cinemas",STANDARD
5422,10859,,"Criterion Cinemas Saratoga","19 Railroad Place","Saratoga Springs",NY,12866,28.84,-73.787671,43.082851,"Bow-Tie Cinemas",STANDARD
3577,1302,,"190 Grille & Cinema","190 Glen Street","Glens Falls",NY,12801,26.66,-73.644699,43.309898,"Independent Chains",STANDARD
889,4655,,"Regal Aviation Mall 7","Aviation Mall Road",Queensbury,NY,12804,24.24,-73.6747,43.3377,"Regal Cinemas",STANDARD
4458,9547,,"Merrill's Roxy Cinemas","222 College Street",Burlington,VT,05401,31.07,-73.210783,44.47726,"Independent Chains",STANDARD
1695,3122,,"Palace 9","10 Fayette Road","South Burlington",VT,05403,28.68,-73.2111,44.4372,"Independent Chains",STANDARD
3900,2261,,"Majestic 10","190 Boxwood Street",Williston,VT,05495,32.2,-73.109963,44.445902,"Independent Chains",STANDARD
3553,2128,,"Essex Outlets Cinema","21 Essex Way, Bldg. 300","Essex Junction",VT,05452,18.4,-73.079681,44.506439,"Independent Chains",STANDARD
4642,9834,,"Cumberland 12 Cinemas","18 North Bowl Lane",Plattsburgh,NY,12901,25.14,-73.432187,44.733136,"Independent Chains",STANDARD
1841,4657,,"Regal Champlain Centre 8","60 Smithfield Boulevard",Plattsburgh,NY,12901,23.47,-73.491197,44.703376,"Regal Cinemas",STANDARD
3343,1557,,"Welden Theatre","104 N Main","Saint Albans",VT,05478,34.38,-73.083241,44.813513,"Independent Chains",STANDARD
4093,2273,,"Holiday Stadium 14 Cinemas","970 North Colony Road",Wallingford,CT,06492,20.93,-72.807244,41.487349,"Independent Chains",STANDARD
883,7423,,"Regal Brass Mill Stadium 12","495 Union Street",Waterbury,CT,06705,28.31,-73.025769,41.549524,"Regal Cinemas",STANDARD
5733,11175,,"Cinemark North Haven","550 Universal Drive","North Haven",CT,06473,34.44,-72.8719,41.3584,Cinemark,STANDARD
2360,5082,,"Seymour Cinemas 12","814 Derby Avenue",Seymour,CT,06483,30.83,-73.095322,41.360687,"Boston Culinary Group",STANDARD
1242,2477,,"Edmond Town Hall Theatre","45 Main St.",Newtown,CT,06470,20.2,-73.310815,41.414849,"Independent Chains",STANDARD
2551,2743,,"Madison Art Cinemas","761 Boston Post Road",Madison,CT,06443,33.16,-72.595268,41.279763,"Independent Chains",STANDARD
875,7581,,"Regal Branford Stadium 12","325 E Main Street",Branford,CT,06405,32.58,-72.784156,41.292062,"Regal Cinemas",STANDARD
1684,3044,,"Roosevelt Cinemas","4060 Albany Post Road","Hyde Park",NY,12538,31.57,-73.928944,41.768209,"Independent Chains",STANDARD
155,8351,2620,"AMC Loews Danbury 16","61 Eagle Road",Danbury,CT,06810,32.22,-73.415609,41.416189,"AMC Theatres",STANDARD
113,7150,,"UA Southampton 4","43 Hill St.",Southampton,NY,11968,12.67,-72.39449,40.883784,"United Artists",STANDARD
5604,11060,,"Prospector Theater","25 Prospect St",Ridgefield,CT,06877,24.84,-73.497072,41.283648,"Independent Chains",STANDARD
3549,5953,,"Empire Southeast Towne Center","Route 22 ",Brewster,NY,10509,25.31,-73.577103,41.428501,"Garden Homes Cinemas",STANDARD
3067,7313,,"Carmel Movieplex 8","150 Route 52",Carmel,NY,10512,21.6,-73.679597,41.434279,"Independent Chains",STANDARD
1530,5911,,"Bow Tie Cinemas Mt Kisco Cinemas ","144 Main St.","Mount Kisco",NY,10549,34.97,-73.727436,41.204985,"Bow-Tie Cinemas",STANDARD
3888,9150,2680,"AMC Loews Port Chester 14","40 Westchester Ave.","Port Chester",NY,10573,34.83,-73.662394,40.99976,"AMC Theatres",STANDARD
3369,2853,,"Jacob Burns Film Center","364 Manville Road",Pleasantville,NY,10570,34.87,-73.791606,41.135049,"Independent Chains",STANDARD
873,7904,,"UA Cortlandt Town Center Stadium 11","3131 E. Main St.","Mohegan Lake",NY,10547,32.81,-73.868339,41.310095,"United Artists",STANDARD
3658,8684,,"City Center 15: Cinema de Lux","19 Mamaroneck Ave.","White Plains",NY,10601,33.73,-73.765699,41.032177,"National Amusements",STANDARD
2858,9162,,"Greenburgh Multiplex Cinemas","320 Saw Mill River Road",Elmsford,NY,10523,32.32,-73.812702,41.066165,"National Amusements",STANDARD
1523,8734,,"Regal Fishkill 10","2400 Rt. 9",Fishkill,NY,12524,30.36,-73.896055,41.524449,"Regal Cinemas",STANDARD
1526,5664,,"Regal Galleria Mall Stadium 16","2001 South Road",Poughkeepsie,NY,12601,29.36,-73.917,41.6269,"Regal Cinemas",STANDARD
1527,3084,,"South Hills 8","1895 South Road",Poughkeepsie,NY,12601,29.04,-73.921553,41.617039,"Independent Chains",STANDARD
4603,9775,,"Downing Film Center","19 Front Street",Newburgh,NY,12550,24.98,-74.005575,41.50226,"Independent Chains",STANDARD
1848,6484,,"Destinta New Windsor 12","215 Quassaik Ave.","New Windsor",NY,12553,24.53,-74.022853,41.475564,"Independent Chains",STANDARD
1828,2890,,"New Paltz Cinema","2 New Paltz Plaza","New Paltz",NY,12561,24.34,-74.069427,41.743156,"Independent Chains",STANDARD
3953,2332,,"Showtime Cinemas - Newburgh","1420 Route 300",Newburgh,NY,12550,34.85,-74.0702,41.5241,"Independent Chains",STANDARD
4606,9778,,"Rosendale Theatre","408 Main St.",Rosendale,NY,12472,27.94,-74.082164,41.844327,"Independent Chains",STANDARD
1529,8677,,"Bow Tie Cinemas Cinema 100","93 Knollwood Road","White Plains",NY,10607,34.03,-73.8082,41.0383,"Bow-Tie Cinemas",STANDARD
119,7932,,"Bow Tie Cinemas Mamaroneck 4","243 Mamaroneck Ave.",Mamaroneck,NY,10543,15.54,-73.733869,40.950565,"Bow-Tie Cinemas",STANDARD
5208,10632,,"Alamo Drafthouse Yonkers","2548 Central Park Ave",Yonkers,NY,10710,32.39,-73.824543,40.982545,"Alamo Drafthouse",STANDARD
771,8756,2729,"AMC Loews Palisades Center 21","4403 Palisades Center Drive","West Nyack",NY,10994,33.33,-73.956485,41.097772,"AMC Theatres",STANDARD
1494,5901,,"Bow Tie Cinemas New City Cinema 6","202 S. Main St.","New City",NY,10956,30.04,-73.989025,41.139576,"Bow-Tie Cinemas",STANDARD
1139,5912,,"Bow Tie Cinemas Port Washington","116 Main St.","Port Washington",NY,11050,8.61,-73.690683,40.830279,"Bow-Tie Cinemas",STANDARD
5319,10756,,"Soundview Cinemas","7 Soundview Marketplace","Port Washington",NY,11050,9.69,-73.705902,40.842483,"Independent Chains",STANDARD
118,7464,,"Bow Tie Cinemas Larchmont Playhouse","1975 Palmer Ave.",Larchmont,NY,10538,15.57,-73.760999,40.931106,"Bow-Tie Cinemas",STANDARD
2584,7575,,"Regal New Roc Stadium 18 + IMAX","33 Le Count Place","New Rochelle",NY,10801,15.49,-73.779566,40.911964,"Regal Cinemas",STANDARD
107,7463,,"Bow Tie Cinemas Manhasset 3","430 Plandome Road",Manhasset,NY,11030,8.46,-73.699942,40.798471,"Bow-Tie Cinemas",STANDARD
1145,5913,,"Bow Tie Squire Cinemas","115 Middle Neck Rd.","Great Neck",NY,11021,9.97,-73.730058,40.789779,"Bow-Tie Cinemas",STANDARD
5044,10421,,"Showcase Cinema de Lux Ridge Hill","29 Fitzgerald St.",Yonkers,NY,10710,33.37,-73.844398,40.963402,"National Amusements",STANDARD
117,7034,,"Bow Tie Cinemas Bronxville 3","84 Kraft Ave.",Bronxville,NY,10708,14.6,-73.834434,40.940259,"Bow-Tie Cinemas",STANDARD
1178,2465,,"Pelham Picture House","175 Wolfs Lane",Pelham,NY,10803,16.69,-73.811375,40.907318,"Independent Chains",STANDARD
282,9218,,"Cross County Multiplex Cinemas","2 South Drive",Yonkers,NY,10704,16.48,-73.854443,40.924828,"National Amusements",STANDARD
562,7336,866,"AMC Bay Plaza Cinema 13","2210 Bartow Ave.",Bronx,NY,10475,16.08,-73.825142,40.866991,"AMC Theatres",STANDARD
152,8451,2130,"AMC Loews Bay Terrace 6","211-01  26th Ave.",Bayside,NY,11360,12.5,-73.778963,40.77898,"AMC Theatres",STANDARD
109,8449,,"Movieworld At Douglaston","242-02 61st Ave.",Douglaston,NY,11362,10.56,-73.738934,40.754707,"Independent Chains",STANDARD
1130,5898,,"Bow Tie Cinemas Clairidge Cinemas","486 Bloomfield Ave.",Montclair,NJ,07042,30.88,-74.218349,40.814325,"Bow-Tie Cinemas",STANDARD
5357,10795,,"Allwood Cinemas 6","96 Market St.",Clifton,NJ,07011,29.59,-74.16208,40.845838,"Independent Chains",STANDARD
122,7299,,"Bow Tie Cinemas Bellevue 4","260 Bellevue Ave.","Upper Montclair",NJ,07043,29.19,-74.208932,40.841213,"Bow-Tie Cinemas",STANDARD
2573,5324,865,"AMC Clifton Commons 16","405 Route 3 East",Clifton,NJ,07014,31.09,-74.140356,40.828814,"AMC Theatres",STANDARD
1932,2993,,"Lincoln Cinemas","838 Kearny Ave.","North Arlington",NJ,07031,26.34,-74.139232,40.780686,"Independent Chains",STANDARD
141,8531,,"CityPlex 12 Newark","360-394 Springfield Ave.",Newark,NJ,07103,11.02,-74.196308,40.733628,"Independent Chains",STANDARD
755,7809,,"AMC Essex Green Cinema 9","495 Prospect Ave.","West Orange",NJ,07052,31.92,-74.25671,40.793361,"AMC Theatres",STANDARD
1184,2813,,"Williams Center Cinemas 3","1 Williams Plaza",Rutherford,NJ,07070,31.92,-74.103255,40.82719,"Independent Chains",STANDARD
2982,5896,,"Bow Tie Cinemas Caldwell Cinema 4","315 Bloomfield Ave.",Caldwell,NJ,07006,28.62,-74.275821,40.839582,"Bow-Tie Cinemas",STANDARD
4274,4919,,"South Orange","1 SOPAC Way","South Orange",NJ,07079,13.11,-74.261138,40.745995,"Bow-Tie Cinemas",STANDARD
4888,10198,,"Fabian 8 Cinema","301 Main St.",Paterson,NJ,07505,33.88,-74.173374,40.91483,"Independent Chains",STANDARD
138,7954,2176,"AMC Loews Wayne 14","67 Willowbrook Blvd.",Wayne,NJ,07470,33.42,-74.250337,40.888309,"AMC Theatres",STANDARD
4232,3065,,"Hudson Cinemas","701 Route 440","Jersey City",NJ,07304,9.99,-74.096453,40.720707,"Independent Chains",STANDARD
1123,4076,,"Maplewood Theater","155 Maplewood Ave.",Maplewood,NJ,07040,12.67,-74.276564,40.731381,"Independent Chains",STANDARD
4804,10061,,"Secaucus ShowPlace 14","650 Plaza Drive",Secaucus,NJ,07094,16.91,-74.0463,40.7863,Kerasotes,STANDARD
1173,2934,,"Hawthorne 5","300 Lafayette Ave.",Hawthorne,NJ,07506,34.12,-74.155383,40.948496,"Independent Chains",STANDARD
3235,5871,,"Columbia Park Stadium 12","3125 Kennedy Blvd.","North Bergen",NJ,07047,23.11,-74.035916,40.77549,"Independent Chains",STANDARD
4336,9312,2253,"AMC Garden State 16","4000 Garden State Plaza",Paramus,NJ,07652,26.98,-74.075962,40.918608,"AMC Theatres",STANDARD
3388,9257,2198,"AMC Loews Jersey Gardens 20","651 Kapowski Road",Elizabeth,NJ,07201,5.69,-74.168304,40.659457,"AMC Theatres",STANDARD
1136,5893,,"Bow Tie Cinemas Millburn Cinemas","350 Millburn Ave.",Millburn,NJ,07041,13.26,-74.307783,40.723645,"Bow-Tie Cinemas",STANDARD
4832,10108,,"Bow Tie Hoboken Cinemas","409-415 14th St.",Hoboken,NJ,07030,9.24,-74.0319,40.7542,"Bow-Tie Cinemas",STANDARD
4012,2320,,"Frank Theatres South Cove Cinema 12","191 Lefante Way",Bayonne,NJ,07002,6.35,-74.105895,40.668119,"Frank Theatres",STANDARD
178,7790,2184,"AMC Loews Newport Centre 11","30-300 Mall Drive W.","Jersey City",NJ,07303,13.41,-74.038024,40.728039,"AMC Theatres",STANDARD
407,8608,,"Bow Tie Cinemas Wayne Preakness","1220 Hamburg Tpk.",Wayne,NJ,07470,34.58,-74.244297,40.961615,"Bow-Tie Cinemas",STANDARD
5401,10839,,"Starplex Cinemas Ridgefield Park","75 Challenger Road","Ridgefield Park",NJ,07660,18.34,-74.012552,40.850278,"Starplex Cinemas",STANDARD
179,8442,,"Bow Tie Cinemas Warner Quad","190 E. Ridgewood Ave.",Ridgewood,NJ,07450,31.65,-74.115486,40.978866,"Bow-Tie Cinemas",STANDARD
3445,4673,,"UA Staten Island Stadium 16 & RPX","2474 Forest Ave.","Staten Island",NY,10303,3.63,-74.172864,40.626186,"United Artists",STANDARD
3232,5635,,"Regal Battery Park Stadium 11","102 North End Ave.","New York",NY,10281,12.03,-74.014968,40.714859,"Regal Cinemas",STANDARD
3103,7174,,"Edgewater Multiplex Cinemas","339 River Road",Edgewater,NJ,07020,8.18,-73.988109,40.808032,"National Amusements",STANDARD
176,7947,,"Digiplex Cranford","25 North Ave.",Cranford,NJ,07016,10,-74.299364,40.65937,"Carmike Cinemas",STANDARD
3442,9013,2120,"AMC Loews West 34th Street 14","312 W. 34th St.","New York",NY,10001,14.02,-73.994396,40.75251,"AMC Theatres",STANDARD
4034,1642,,"IFC Center","323 6th Ave. at W 3rd St.","New York",NY,10014,12.76,-74.001535,40.73114,"Independent Chains",STANDARD
2820,9074,,"Regal E-Walk Stadium 13","247 W. 42nd St.","New York",NY,10036,14.24,-73.989113,40.757082,"Regal Cinemas",STANDARD
573,7785,,"Quad Cinema","34 W. 13th St.","New York",NY,10011,12.97,-73.996002,40.735978,"Independent Chains",STANDARD
2986,7503,552,"AMC Empire 25","234 W. 42nd St.","New York",NY,10036,14.2,-73.98866,40.756581,"AMC Theatres",STANDARD
1126,8895,,"Bow Tie Cinemas Beacon Hill 5","343 Springfield Ave.",Summit,NJ,07901,17.03,-74.356468,40.718217,"Bow-Tie Cinemas",STANDARD
5064,10447,,"Film Society of Lincoln Center","144 W 65th St.","New York",NY,10023,7.06,-73.983597,40.773499,"Independent Chains",STANDARD
575,8099,,"Film Society of Lincoln Center's Walter Reade Theater","165 W. 65th St.","New York",NY,10023,7.06,-73.983597,40.773499,"Independent Chains",STANDARD
39,6954,2183,"AMC Loews Mountainside 10","1021 Route 22",Mountainside,NJ,07092,12.5,-74.335438,40.683657,"AMC Theatres",STANDARD
4383,9427,2249,"AMC Aviation 12","1200 South Stiles St.",Linden,NJ,07036,6.2,-74.245477,40.620565,"AMC Theatres",STANDARD
140,6849,2181,"AMC Loews East Hanover 12","145 Route 10 E.","East Hanover",NJ,07936,30.53,-74.382162,40.808893,"AMC Theatres",STANDARD
1137,5906,,"Cinépolis Parsippany Cinema 12","3165 US HWY 46",Parsippany,NJ,07054,34.78,-74.426161,40.870358,"Cinepolis Luxury Cinemas",STANDARD
6041,11445,,"Kinnelon Cinemas","25 Kinnelon Rd",Kinnelon,NJ,07405,33.79,-74.360996,41.002807,"Independent Chains",STANDARD
1779,5905,,"Bow Tie Cinemas Kinnelon 11","25 Kinnelon Road",Kinnelon,NJ,07405,33.78,-74.360989,41.002926,"Bow-Tie Cinemas",STANDARD
1135,8674,,"Bow Tie Cinemas Madison Cinema 4","14 Lincoln Place",Madison,NJ,07940,19.21,-74.414723,40.757398,"Bow-Tie Cinemas",STANDARD
1158,6449,,"Roberts Chatham Cinema","641 Shunpike Rd.",Chatham,NJ,07928,18.35,-74.431617,40.745481,"Independent Chains",STANDARD
5419,10855,63,"AMC Headquarters 10","72 Speedwell Ave.",Morristown,NJ,07960,32.71,-74.481328,40.799897,"AMC Theatres",STANDARD
123,3915,,"Digiplex Rialto","250 E. Broad St.",Westfield,NJ,07090,11.98,-74.3473,40.6526,"Carmike Cinemas",STANDARD
6036,11440,,"Washington Township Cinemas","249 Pascack Road","Washington Township",NJ,07676,30.89,-74.0632,40.9848,"Independent Chains",STANDARD
4276,4257,2248,"AMC Rockaway 16","363 Mount Hope Ave.",Rockaway,NJ,07866,33.34,-74.558018,40.90941,"AMC Theatres",STANDARD
1495,2498,,"Lafayette Theatre","97 Lafayette Ave.",Suffern,NY,10901,32.85,-74.15035,41.115063,"Boston Culinary Group",STANDARD
569,8349,,"Atrium Stadium Cinemas","680 Arthur Kill Road","Staten Island",NY,10308,1.88,-74.163846,40.559671,"Independent Chains",STANDARD
121,8205,,"United Artists Hylan Plaza","107 Mill Road","Staten Island",NY,10306,10.49,-74.109628,40.566976,"United Artists",STANDARD
4231,3117,,"Big Cinemas Movie City 8","1655 Oak Tree Road",Edison,NJ,08820,10.55,-74.34062,40.57097,"Independent Chains",STANDARD
281,9274,,"Rave Cinemas Hazlet 12","2821 Highway 35",Hazlet,NJ,07730,11.26,-74.169227,40.418511,Cinemark,STANDARD
2672,5895,,"Bow Tie Cinemas Strathmore Cinema 4","1055 Route 34",Aberdeen,NJ,07747,13.22,-74.229301,40.4011,"Bow-Tie Cinemas",STANDARD
169,3033,,"Bay Ridge Alpine Cinemas","6817 Fifth Ave.",Brooklyn,NY,11220,7.73,-74.020808,40.633656,"Independent Chains",STANDARD
635,8055,,"Regal Hadley Theatre Stadium 16","1000 Corporate Court","South Plainfield",NJ,07080,4.83,-74.424281,40.548929,"Regal Cinemas",STANDARD
300,7190,2220,"AMC Loews New Brunswick 18","17 US Highway 1","New Brunswick",NJ,08901,1.42,-74.415618,40.488952,"AMC Theatres",STANDARD
5960,11391,,"Rutgers Cinema","105 Joyce Kilmer Ave",Piscataway,NJ,08854,3.14,-74.437311,40.525334,"Independent Chains",STANDARD
1177,6418,,"Starplex East Brunswick","755 State HWY 18","East Brunswick",NJ,08816,5.04,-74.381776,40.422004,"Starplex Cinemas",STANDARD
1797,2946,,"Atlantic Highlands Cinema 5","82 First Ave.","Atlantic Highlands",NJ,07716,12.14,-74.037586,40.41353,"Independent Chains",STANDARD
848,2421,,"Dunellen Cinema Cafe","458 North Ave",Dunellen,NJ,08812,7.69,-74.467582,40.589316,"Independent Chains",STANDARD
564,6948,,"Cobble Hill Cinema","265 Court St.",Brooklyn,NY,11231,9.7,-73.994512,40.68491,"Cobble Hill Cinemas",STANDARD
3234,5711,,"UA Court Street Stadium 12","108 Court St.",Brooklyn,NY,11201,10,-73.992153,40.690552,"United Artists",STANDARD
565,7481,,"Kent Theatre","1170 Coney Island Ave.",Brooklyn,NY,11230,5.6,-73.966003,40.629002,"Independent Chains",STANDARD
2746,2576,,"Bam Rose Cinemas","30 Lafayette Ave.",Brooklyn,NY,11217,9.43,-73.977703,40.68645,"Independent Chains",STANDARD
3044,9040,2304,"AMC Magic Johnson Harlem 9","2309 Frederick Douglass Blvd.","New York",NY,10027,12.7,-73.951791,40.809678,"AMC Theatres",STANDARD
151,9062,2116,"AMC Loews Lincoln Square 13","1998 Broadway","New York",NY,10023,7.06,-73.98164,40.774975,"AMC Theatres",STANDARD
148,9039,2104,"AMC Loews Orpheum 7","1538 Third Ave.","New York",NY,10028,15.33,-73.953855,40.779304,"AMC Theatres",STANDARD
574,2976,,"Lincoln Plaza Cinemas","1886 Broadway","New York",NY,10023,15.05,-73.98184,40.770837,"Independent Chains",STANDARD
539,2863,,"City Cinemas 86th Street East","210 E. 86th St.","New York",NY,10028,15.26,-73.953339,40.778375,"Reading International, Inc",STANDARD
570,6648,,"City Cinemas Paris Theatre","4 W. 58th St.","New York",NY,10019,14.51,-73.974713,40.764145,"Reading International, Inc",STANDARD
4601,9770,,"City Cinemas Beekman Theatre","1271 Second Ave.","New York",NY,10021,14.43,-73.961008,40.765277,"Reading International, Inc",STANDARD
320,6015,,"Concourse Plaza Multiplex Cinemas","214 E. 161st St.",Bronx,NY,10451,12.51,-73.920736,40.826296,"National Amusements",STANDARD
2472,9151,2195,"AMC Loews Kips Bay 15","570 Second Ave.","New York",NY,10016,13.15,-73.9767,40.7435,"AMC Theatres",STANDARD
150,9084,2112,"AMC Loews 19th Street East 6","890 Broadway","New York",NY,10003,13.03,-73.98977,40.738557,"AMC Theatres",STANDARD
3233,5712,,"UA Kaufman Astoria Stadium 14","35-30 38th St.",Astoria,NY,11101,13.51,-73.923622,40.755206,"United Artists",STANDARD
1609,7572,,"Regal Union Square Stadium 14","850 Broadway","New York",NY,10003,12.75,-73.990574,40.734049,"Regal Cinemas",STANDARD
571,8448,,"Cinema Village 12th Street","22 E. 12th St.","New York",NY,10003,12.8,-73.993429,40.734077,"Independent Chains",STANDARD
149,9112,2110,"AMC Loews Village 7","66 3rd Ave. (11th St.)","New York",NY,10003,12.55,-73.988758,40.731499,"AMC Theatres",STANDARD
538,3034,,"City Cinemas Village East","181-189 Second Ave.","New York",NY,10003,12.47,-73.98617,40.73092,"Reading International, Inc",STANDARD
540,2975,,"City Cinemas Angelika Film Center","18 W. Houston St.","New York",NY,10012,12.34,-73.997283,40.725811,"Reading International, Inc",STANDARD
1147,5894,,"Bow Tie Cinemas Tenafly Cinema 4","4 1/2 W. Railroad Ave.",Tenafly,NJ,07670,12.91,-73.965162,40.924117,"Bow-Tie Cinemas",STANDARD
5060,10443,,"Nitehawk Cinema","136 Metropolitan Ave.",Brooklyn,NY,11249,11.13,-73.962506,40.716121,"Independent Chains",STANDARD
5894,11315,,Metrograph,"7 Ludlow St.","New York",NY,10002,11.53,-73.991181,40.715078,"Independent Chains",STANDARD
1766,5899,,"Bow Tie Cinemas Bergenfield 5 ","58 S Washington Ave.",Bergenfield,NJ,07621,34.84,-73.996778,40.925891,"Bow-Tie Cinemas",STANDARD
5777,11217,,"Videology Cinema","308 Bedford Ave.",Brooklyn,NY,11249,10.97,-73.961814,40.713864,"Independent Chains",STANDARD
5284,10718,,"Williamsburg Cinemas","217 Grand St.",Brooklyn,NY,11211,10.95,-73.9599,40.7139,"Independent Chains",STANDARD
5965,11401,,Syndicated,"40 Bogart Street",Brooklyn,NY,11206,10.09,-73.93286,40.704962,"Independent Chains",STANDARD
2433,5891,,"Bow Tie Cinemas Bernardsville Cinema 3","5 Mine Brook Road",Bernardsville,NJ,07924,30.27,-74.569702,40.718172,"Bow-Tie Cinemas",STANDARD
1131,5892,,"Bow Tie Cinemas Closter Cinema 4","130 Closter Plaza",Closter,NJ,07624,32.01,-73.954967,40.968623,"Bow-Tie Cinemas",STANDARD
160,3900,,"Westwood Theaters","182 Center Ave.",Westwood,NJ,07675,30.35,-74.031568,40.991013,"Independent Chains",STANDARD
2267,7742,,"Regal Commerce Center Stadium 18","2399 Route 1 South","North Brunswick",NJ,08902,27.27,-74.503604,40.443203,"Regal Cinemas",STANDARD
2560,3193,,"Manville 12 Plex","180 N Main Street",Manville,NJ,08835,23.96,-74.584304,40.550046,"Reading International, Inc",STANDARD
1783,5904,,"Cinépolis Succasunna Cinema 10","21 Sunset Strip",Succasunna,NJ,07876,29.49,-74.64442,40.869679,"Cinepolis Luxury Cinemas",STANDARD
4396,9444,,"Sparta Theatre","25 Centre St.",Sparta,NJ,07871,29.16,-74.634832,41.030475,"Carmike Cinemas",STANDARD
5952,6009,,"Newton Theatre","234 Spring Street",Newton,NJ,07860,32.48,-74.750079,41.056105,"Independent Chains",STANDARD
754,7207,,"AMC Bridgewater Commons 7","400 Commons Way",Bridgewater,NJ,08807,24.96,-74.619248,40.586779,"AMC Theatres",STANDARD
3116,3161,,"Hillsborough Cinemas","111 Raider Blvd.",Hillsborough,NJ,08844,26.03,-74.644439,40.492638,"Independent Chains",STANDARD
2443,4078,,"Montgomery Cinema","1325 Route 206","Belle Mead",NJ,08502,20.6,-74.647465,40.404926,"Independent Chains",STANDARD
145,8854,,"Bow Tie Cinemas Red Bank Cinemas","36 White St.","Red Bank",NJ,07701,21.55,-74.067286,40.350467,"Bow-Tie Cinemas",STANDARD
143,8755,2233,"AMC Loews Freehold Metroplex 14","101 Trotters Way",Freehold,NJ,07728,17.66,-74.294567,40.249677,"AMC Theatres",STANDARD
5393,10830,,"Regal Nanuet Mall Stadium 12 & RPX","6201 Fashion Dr.",Nanuet,NY,10954,32.4,-74.015154,41.097798,"Regal Cinemas",STANDARD
5730,11172,,"Monroe Theaters at TMACC","34 Millpond Parkway",Monroe,NY,10950,29.05,-74.1884,41.3269,"Independent Chains",STANDARD
2845,3453,,"Elite Cinema 6","78 Brookside Ave.",Chester,NY,10918,23.81,-74.283902,41.360188,"Independent Chains",STANDARD
5100,10496,,"Majestic Cinemas - Matamoras","111 Hulst Drive",Matamoras,PA,18336,24.34,-74.723253,41.352797,"Spotlight Theatres",STANDARD
499,5960,,"Middletown Cinemas","130 Dolson Ave.",Middletown,NY,10940,16.37,-74.426923,41.431258,"Independent Chains",STANDARD
5320,10757,,"Paramount Theatre - Middletown","17 S. St.",Middletown,NY,10940,16.84,-74.4204,41.4443,"Independent Chains",STANDARD
156,7318,2744,"AMC Loews Galleria Metroplex 16","1 N. Galleria Drive",Middletown,NY,10940,19.69,-74.36667,41.453077,"AMC Theatres",STANDARD
2352,5907,,"Cinépolis Mansfield Cinema 14","1965 State Route 57",Hackettstown,NJ,07840,30.01,-74.836078,40.82309,"Cinepolis Luxury Cinemas",STANDARD
2351,4139,,"Poconos Movieplex","400 Foxmoor Dr.","East Stroudsburg",PA,18301,30.43,-75.076151,41.063037,"Independent Chains",STANDARD
2460,9245,,"College Point Multiplex Cinemas","2855 Ulmer St.",Whitestone,NY,11357,15.46,-73.835206,40.771789,"National Amusements",STANDARD
144,9110,2234,"AMC Loews Monmouth Mall 15","180 State Rt. 35 S.",Eatontown,NJ,07724,19.74,-74.053195,40.287254,"AMC Theatres",STANDARD
1772,8675,,"Cine Grand Middlebrook 10","1502 Route 35 South",Ocean,NJ,07712,20.8,-74.040824,40.247016,"Independent Chains",STANDARD
4948,10303,,"The Showroom","708 Cookman Ave.","Asbury Park",NJ,07712,28.08,-74.0124,40.215744,"Independent Chains",STANDARD
5918,11346,,"Xscape Theatres Howell 14","5361 US Highway 9",Howell,NJ,07731,23.05,-74.219658,40.1267,"Independent Chains",STANDARD
111,7750,,"UA Sheepshead Bay Stadium 14 + IMAX","3907 Shore Pkwy.",Brooklyn,NY,11235,2.1,-73.930501,40.586166,"United Artists",STANDARD
505,8754,2219,"AMC Loews Brick Plaza 10","3 Brick Plaza",Brick,NJ,08723,15.85,-74.141858,40.0584,"AMC Theatres",STANDARD
142,9239,2232,"AMC Loews Seacourt 10","635 Bay Ave.","Toms River",NJ,08753,11.51,-74.180632,39.974787,"AMC Theatres",STANDARD
824,7620,,"Linden Blvd. Multiplex Cinemas","2784 Linden Blvd.",Brooklyn,NY,11208,7.98,-73.8614,40.6694,"National Amusements",STANDARD
4390,9438,,"Marquee Cinemas Orchard 10","1311 Route 37W","Toms River",NJ,08755,8,-74.255455,39.98263,"Marquee Cinemas",STANDARD
4206,4646,,"Regal Atlas Park Stadium 8","Cooper Ave ",Glendale,NY,11385,10.46,-73.867639,40.707906,"Regal Cinemas",STANDARD
566,7948,,"Cinemart Cinemas","106-03 Metropolitan Ave.","Forest Hills",NY,11375,17.66,-73.846874,40.710038,"Independent Chains",STANDARD
6056,11463,,"Picture Show at East Windsor","319 US-130","East Windsor",NJ,08520,19.03,-74.530387,40.277675,"Picture Show Entertainment",STANDARD
1613,5636,,"Regal Manahawkin 10","733 State HWY 72 E",Manahawkin,NJ,08050,16.55,-74.279204,39.70609,"Regal Cinemas",STANDARD
5764,11206,68,"AMC MarketFair 10","3521 U.S. 1",Princeton,NJ,08540,15.14,-74.661798,40.315376,"AMC Theatres",STANDARD
425,2665,,"Princeton Garden Theatre","160 Nassau St.",Princeton,NJ,08542,17.19,-74.657536,40.350714,"Independent Chains",STANDARD
2476,7071,79,"AMC Hamilton 24","325 Sloan Ave.",Hamilton,NJ,08619,10.68,-74.694586,40.24899,"AMC Theatres",STANDARD
5755,11197,,"Regal Independence Plaza 12","2465 South Broad Street",Hamilton,NJ,08610,7.36,-74.721756,40.191861,"Regal Cinemas",STANDARD
4683,9890,,"Pocono Community Theater","88 South Courtland St.","East Stroudsburg",PA,18301,25.12,-75.183015,40.997874,"Independent Chains",STANDARD
1578,5637,,"Regal Pohatcong 12","1246 US Highway 22",Phillipsburg,NJ,08865,31.45,-75.147686,40.676604,"Regal Cinemas",STANDARD
146,8238,,"Cinemark Stroud Mall","160 Stroud Mall",Stroudsburg,PA,18360,23.13,-75.223324,40.990461,Cinemark,STANDARD
3697,687,,"The Gap Theatre","47 Broadway","Wind Gap",PA,18091,31.65,-75.2917,40.8471,"Independent Chains",STANDARD
604,5642,,"Regal Northampton Cinema 14","3720 Nazareth Highway",Easton,PA,18045,32.8,-75.285203,40.717806,"Regal Cinemas",STANDARD
4197,1447,,"Casino Theatre","Route 611 Main Street","Mount Pocono",PA,18344,27.98,-75.355718,41.12086,"Independent Chains",STANDARD
5047,10425,,"Frank Banko Alehouse Cinema","ArtsQuest Center at SteelStacks",Bethlehem,PA,18015,25.59,-75.367498,40.615067,"Independent Chains",STANDARD
2629,5739,,"Carmike 16 Allentown","1700 Catasaqua Rd.",Allentown,PA,18109,33.31,-75.430348,40.636103,"Carmike Cinemas",STANDARD
4315,2399,,"Promenade 16","2805 Center Valley Parkway","Center Valley",PA,18034,31.26,-75.407303,40.559101,"Carmike Cinemas",STANDARD
1489,8659,,"Regal Richland Crossing Stadium 12","185 North West End Blvd.",Quakertown,PA,18951,30.85,-75.354769,40.448148,"Regal Cinemas",STANDARD
2355,380,,"Civic's 19th Street Theatre","527 N. 19th St.",Allentown,PA,18104,29.05,-75.499982,40.603171,"Independent Chains",STANDARD
4684,9891,,"Civic's Theatre 514","514 N. 19th St.",Allentown,PA,18104,29.03,-75.499976,40.602845,"Independent Chains",STANDARD
83,7067,594,"AMC Tilghman Square 8","4608 Broadway",Allentown,PA,18104,26.02,-75.558456,40.587169,"AMC Theatres",STANDARD
1933,4026,,"Cinema 6 - Honesdale","Route 6 Plaza",Honesdale,PA,18431,33.02,-75.225127,41.552495,"Independent Chains",STANDARD
2,2661,,"County Theatre","20 E. State St.",Doylestown,PA,18901,32.73,-75.130065,40.31014,"Independent Chains",STANDARD
2297,8732,,"Regal Barn Plaza Stadium 14","1745 Easton Road",Doylestown,PA,18901,34.03,-75.127054,40.271799,"Regal Cinemas",STANDARD
438,2418,,Newtown,"120 N. State St.",Newtown,PA,18940,19.56,-74.93654,40.230711,"Independent Chains",STANDARD
420,5709,,"United Artists Oxford Valley Stadium 14","403 Middletown Rd.",Langhorne,PA,19047,15.07,-74.883409,40.185342,"United Artists",STANDARD
5413,10850,,"Moorestown Mall Stadium 12 + RPX","400 Route 38",Moorestown,NJ,08057,17.9,-74.963205,39.942754,"Regal Cinemas",STANDARD
2003,8453,2194,"AMC Loews Cherry Hill 24","2121 Route 38","Cherry Hill",NJ,08002,30.21,-75.028232,39.936463,"AMC Theatres",STANDARD
5389,10826,,"Carmike Ritz Center 16","900 Haddonfield-Berlin Road",Voorhees,NJ,08043,30.46,-74.977173,39.848026,"Carmike Cinemas",STANDARD
434,9250,,"Cinemark 16 Somerdale","711 Evesham Road",Somerdale,NJ,08083,28.42,-75.020206,39.855401,Cinemark,STANDARD
360,4256,73,"AMC Marlton 8","800 N. Rte. 73",Marlton,NJ,08053,20.58,-74.935491,39.904923,"AMC Theatres",STANDARD
359,4255,72,"AMC Deptford 8","1740 Clements Bridge Rd.",Deptford,NJ,08096,23.93,-75.100479,39.834758,"AMC Theatres",STANDARD
421,8592,,"United Artists Riverview Stadium 17","1400 S. Columbus Blvd.",Philadelphia,PA,19147,24.67,-75.1445,39.9297,"United Artists",STANDARD
363,5284,564,"AMC Woodhaven 10","1336 Bristol Pike",Bensalem,PA,19020,15.06,-74.965435,40.072055,"AMC Theatres",STANDARD
439,8965,,"Regal Cross Keys Stadium 12","151 American Blvd.",Turnersville,NJ,08012,26.06,-75.039668,39.728596,"Regal Cinemas",STANDARD
5717,11159,,"Prince Theater","1412 Chestnut Street",Philadelphia,PA,19102,24.65,-75.164743,39.950563,"Independent Chains",STANDARD
5964,11395,,"AMC N Broadstreet 7","1600 North Broad Street",Philadelphia,PA,19121,26.11,-75.158456,39.97797,"AMC Theatres",STANDARD
416,5286,870,"AMC Franklin Mills 14","903 Franklin Mills Cir.",Philadelphia,PA,19154,15.28,-74.9609,40.0838,"AMC Theatres",STANDARD
120,6569,,"United Artists Washington Township 14","121 Tuckahoe Rd.",Sewell,NJ,08080,26.67,-75.028563,39.716157,"United Artists",STANDARD
5462,10904,,"The PFS Theater at the Roxy","2023 Sansom St.",Philadelphia,PA,19103,24.29,-75.174515,39.951534,"Independent Chains",STANDARD
214,7276,,"United Artists Grant Plaza 9","1619 Grant Ave.",Philadelphia,PA,19115,22.83,-75.038166,40.08761,"United Artists",STANDARD
417,9129,,"Regal Burlington Stadium 20","250 Bromley Blvd.",Burlington,NJ,08016,18.91,-74.821508,40.037637,"Regal Cinemas",STANDARD
3560,5153,,"University City Penn 6","4012 Walnut St.",Philadelphia,PA,19104,23.24,-75.203004,39.953805,Cinemark,STANDARD
436,206,,"Hiway Theatre, Inc.","212 Old York Rd.",Jenkintown,PA,19046,33.09,-75.125438,40.094678,"Independent Chains",STANDARD
1441,7804,357,"AMC Neshaminy 24","660 Neshaminy Mall",Bensalem,PA,19020,16.11,-74.955184,40.139323,"AMC Theatres",STANDARD
419,8423,,"United Artists Main Street Theatre 6","3720 Main St.",Manayunk,PA,19127,26.01,-75.210468,40.015576,"United Artists",STANDARD
415,7298,,"Bow Tie Bala Theater","157 Bala Ave.","Bala Cynwyd",PA,19004,24.7,-75.232034,40.004658,"Independent Chains",STANDARD
5738,11180,,"Studio Movie Grill Upper Darby","53 S. 69th St.","Upper Darby",PA,19082,21.43,-75.2586,39.9598,"Studio Movie Grill",SELECT_SEATING
437,2666,,"Narberth Stadium 2","129 N. Narberth Ave.",Narberth,PA,19072,23.86,-75.260307,40.006445,"Independent Chains",STANDARD
5747,11189,,"Movie Tavern Flourtown","1842 Bethlehem Pike",Flourtown,PA,19031,31.17,-75.214044,40.110483,"Movie Tavern",STANDARD
3608,1577,,"Ambler Theater","108 E. Butler Ave.",Ambler,PA,19002,33.61,-75.221183,40.154838,"Independent Chains",STANDARD
428,6580,,"Bryn Mawr Film Institute","824 Lancaster Ave.","Bryn Mawr",PA,19010,23.05,-75.318933,40.021674,"Independent Chains",STANDARD
2557,8883,,"Regal Cinemas Warrington Crossing Stadium 22 & IMAX","140 Easton Rd. Building. F",Warrington,PA,18976,29.75,-75.142729,40.216162,"Regal Cinemas",STANDARD
2083,8105,871,"AMC Plymouth Meeting Mall 12","494 W. Germantown Pike","Plymouth Meeting",PA,19462,29.72,-75.279393,40.114725,"AMC Theatres",STANDARD
365,5285,596,"AMC Marple 10","400 S. State Road",Springfield,PA,19064,33.89,-75.358036,39.938289,"AMC Theatres",STANDARD
418,9075,,"Regal Plymouth Meeting 10","1011 W. Ridge Pike",Conshohocken,PA,19428,28.15,-75.306113,40.099417,"Regal Cinemas",STANDARD
366,5283,670,"AMC 309 Cinema 9","1210 Bethlehem Pike","North Wales",PA,19454,32.14,-75.225449,40.207346,"AMC Theatres",STANDARD
367,5897,,"Bow Tie Cinemas Anthony Wayne 5","109 W. Lancaster Ave.",Wayne,PA,19087,22.97,-75.388444,40.04414,"Independent Chains",STANDARD
4199,2075,,"Frank Theatres Montgomeryville Stadium 12","750 Montgomery Glen Drive",Lansdale,PA,19446,33.4,-75.239546,40.248532,"Frank Theatres",STANDARD
364,5280,354,"AMC Granite Run 8","1067 W. Baltimore Pike",Media,PA,19063,30.03,-75.432211,39.916335,"AMC Theatres",STANDARD
2977,5710,,"UA King of Prussia Stadium 16 & IMAX","300 Goddard Blvd.","King of Prussia",PA,19406,26.02,-75.397711,40.092642,"United Artists",STANDARD
1493,7420,,"Regal Cumberland Mall Stadium 14","3849 S. Delsea",Vineland,NJ,08360,34.8,-75.031879,39.432249,"Regal Cinemas",STANDARD
3403,8056,,"Regal Hamilton Commons Stadium 14","4215 Black Horse Pike","Mays Landing",NJ,08330,10.77,-74.626919,39.446803,"Regal Cinemas",STANDARD
1566,3225,,"Frank Theatres Towne Stadium 16","6733 Black Horse Pike","Egg Harbor Township",NJ,08234,6.05,-74.564053,39.398792,"Frank Theatres",STANDARD
5005,10376,,"Frank Theatres Tilton 9","331 Tilton Road",Northfield,NJ,08225,5.12,-74.554789,39.386443,"Frank Theatres",STANDARD
532,5640,,"Regal Edgmont Square 10","4777 W. Chester Pike","Newtown Square",PA,19073,33.03,-75.439167,39.97796,"Regal Cinemas",STANDARD
450,8309,,"Regal Brandywine Town Center 16","3300 Brandywine Parkway",Wilmington,DE,19803,22.08,-75.536005,39.8332,"Regal Cinemas",STANDARD
3591,666,,"Theatre N at Nemours","11th ",Wilmington,DE,19801,17.61,-75.549384,39.746753,"Independent Chains",STANDARD
368,9165,598,"AMC Painters Crossing 9","112 Wilmington Pike","West Chester",PA,19382,24.25,-75.549572,39.882701,"AMC Theatres",STANDARD
5255,10685,,"Penn Cinema Riverfront IMAX","401 S. Madison St.",Wilmington,DE,19801,16.66,-75.562,39.7368,"Independent Chains",STANDARD
1323,5218,,"Cinemark Movies 10 Wilmington","1796 W. Newport Pike",Wilmington,DE,19804,12.77,-75.631315,39.714372,Cinemark,STANDARD
5574,11021,,"Cinemark Christiana and XD","1200 Christiana Mall",Christiana,DE,19702,10.56,-75.6513,39.6806,Cinemark,STANDARD
1490,6712,,"Regal Oaks Stadium 24","180 Mill Rd.",Oaks,PA,19456,27.76,-75.453286,40.12749,"Regal Cinemas",STANDARD
5792,11232,,"Movie Tavern Exton","110 Bartlett Ave.",Exton,PA,19341,30.88,-75.6283,40.0219,"Movie Tavern",STANDARD
2742,2572,,"Colonial Theatre - Phoenixville","227 Bridge St.",Phoenixville,PA,19460,27.91,-75.517447,40.133846,"Independent Chains",STANDARD
5065,10448,,"Providence Town Center","140 Market St.",Collegeville,PA,19426,30.27,-75.4794,40.1664,"Movie Tavern",STANDARD
2288,8966,,"Regal Downingtown Cinema Stadium 16","100 Quarry Rd",Downingtown,PA,19335,29.68,-75.674021,40.0146,"Regal Cinemas",STANDARD
5361,10800,,"Moorlyn Family Theatre","837 Moorlyn Terrace","Ocean City",NJ,08226,6.64,-74.5713,39.2764,"Independent Chains",STANDARD
5362,10801,,"Strand Theatre","900 Boardwalk","Ocean City",NJ,08226,6.64,-74.5714,39.2749,"Independent Chains",STANDARD
2867,8207,,"Carmike 14 Theatre","1365 N. Dupont Hwy, Suite 3020",Dover,DE,19901,31.71,-75.540318,39.195079,"Carmike Cinemas",STANDARD
5464,10905,,"Westown Movies","150 Commerce Drive",Middletown,DE,19709,11.54,-75.6923,39.393,"Independent Chains",STANDARD
590,7744,,"Regal Peoples Plaza Cinema Stadium 17","1100 Peoples Plaza",Newark,DE,19702,3.81,-75.748554,39.602841,"Regal Cinemas",STANDARD
5989,11425,,"Main Street Movies 5","230 East Main Street",Newark,DE,19711,7.18,-75.744789,39.686269,"Independent Chains",STANDARD
4201,2325,,"Rio Stadium 12","3801 Route 9 South Suite 1","Rio Grande",NJ,08242,24.49,-74.879431,39.014161,"Frank Theatres",STANDARD
1804,2336,,"The Movies at Midway","29 Midway Shopping Center","Rehoboth Beach",DE,19971,24.86,-75.141989,38.737938,"Independent Chains",STANDARD
6141,11563,,"Cinema Art Theater","17701 Dartmouth Drive",Lewes,DE,19958,25,-75.1544,38.7434,"Independent Chains",STANDARD
1990,2716,,"Strand Theatre - Kutztown","32 N. Whiteoak St.",Kutztown,PA,19530,14.87,-75.779087,40.51655,"Independent Chains",STANDARD
110,7903,,"UA Midway Stadium 9","108-22 Queens Blvd.","Forest Hills",NY,11375,17.46,-73.843419,40.720823,"United Artists",STANDARD
4681,9885,,"Phoenix Theatre Bombay","6825 Fresh Meadow Lane",Flushing,NY,11365,13.7,-73.794359,40.733047,"Independent Chains",STANDARD
2680,2955,,"Kew Gardens Cinemas","81-05 Lefferts Blvd.","Kew Gardens",NY,11415,15.94,-73.829847,40.709138,"Cobble Hill Cinemas",STANDARD
3512,5152,,"Jamaica Multiplex Cinemas","159-02 Jamaica Ave.",Jamaica,NY,11432,14.6,-73.799828,40.703223,"National Amusements",STANDARD
108,8662,,"UA Lynbrook 6","321 Merrick Road",Lynbrook,NY,11563,10.94,-73.671829,40.657223,"United Artists",STANDARD
4798,10053,,"Rotterdam Square Cinema","93 W. Campbell Road",Schenectady,NY,12306,30.33,-73.987491,42.807997,"Zurich Cinemas",STANDARD
4359,9384,,"Bow Tie Cinemas Movieland","400 State St",Schenectady,NY,12305,32.49,-73.94237,42.813038,"Bow-Tie Cinemas",STANDARD
2811,6599,,"Emerald Cinema","136 Perth Plaza, Route 30",Amsterdam,NY,12010,24.63,-74.18444,42.969495,"Independent Chains",STANDARD
3386,613,,"Park Theatre","1 Park Place",Cobleskill,NY,12043,33.2,-74.485373,42.677557,"Independent Chains",STANDARD
2812,2187,,"Johnstown MoviePlex 9","Pyramid Mall - Rt 30A",Johnstown,NY,12095,29.11,-74.3611,43.0154,"Independent Chains",STANDARD
5753,11195,,"Orpheum Theatre","6050 Main Street",Tannersville,NY,12424,29.39,-74.135385,42.195889,"Independent Chains",STANDARD
1934,4086,,"Southside Mall Cinema","Route 23",Oneonta,NY,13820,3.28,-75.046384,42.447118,"Zurich Cinemas",STANDARD
3336,590,,"Walton Theatres","Gardiner Place",Walton,NY,13856,28.89,-75.1358,42.1721,"Independent Chains",STANDARD
2752,2581,,"Callicoon Theatre","30 Upper Main St.",Callicoon,NY,12723,30.34,-75.058237,41.767051,"Independent Chains",STANDARD
5161,10567,,"Great Escape Dickson City 14 IMAX","3909 Commerce Blvd","Dickson City",PA,18519,34.96,-75.627,41.4618,"Regal Cinemas",STANDARD
168,6199,,"Marquee Steamtown","301 Lackawanna Ave.",Scranton,PA,18503,33.67,-75.667445,41.408404,"Marquee Cinemas",STANDARD
6098,11512,,"Iron Horse Movie Bistro","301 Lackawanna Ave",Scranton,PA,18503,33.66,-75.667645,41.408394,"Phoenix Theatres",STANDARD
2060,316,,"Strand of Old Forge","3093 Rte 28 Main St.","Old Forge",NY,13420,29.76,-74.897102,43.740002,"Independent Chains",STANDARD
1827,1676,,"Roxy Theatre - Potsdam","20 Main Street",Potsdam,NY,13676,26.76,-74.9851,44.6686,"Independent Chains",STANDARD
3382,1865,,"American Theatre - Canton","96 Main St",Canton,NY,13617,30.85,-75.169396,44.595285,"Independent Chains",STANDARD
1535,5661,,"Regal Shoppingtown Mall 10","3649 Erie Blvd",DeWitt,NY,13214,33.23,-76.0661,43.0393,"Regal Cinemas",STANDARD
5003,10374,,"Plaza 6 Cinemas","255 Tompkins St",Cortland,NY,13045,15.95,-76.200031,42.58343,"Independent Chains",STANDARD
1533,5668,,"Regal Destiny USA Stadium 19","9586 Destiny USA Dr.",Syracuse,NY,13204,33.78,-76.172622,43.069037,"Regal Cinemas",STANDARD
1534,2500,,"Hollywood Theatre","2221 Brewerton Rd.",Mattydale,NY,13211,34.54,-76.145401,43.098301,"Zurich Cinemas",STANDARD
5925,11356,,"Movie Tavern Syracuse","180 Township Blvd.",Camillus,NY,13031,29.47,-76.2711,43.055,"Movie Tavern",STANDARD
1583,7147,,"Regal Great Northern Mall 10","4155 State Rt. 31",Clay,NY,13041,29.56,-76.224582,43.189519,"Regal Cinemas",STANDARD
1616,6534,,"Glenwood MoviePlex","Route 5 ",Oneida,NY,13421,34.62,-75.642166,43.077347,"Zurich Cinemas",STANDARD
3561,1574,,"Hamilton Theater","7 Lebanon St.",Hamilton,NY,13346,31.4,-75.544867,42.826568,"Independent Chains",STANDARD
4379,9421,,"Regal Ithaca Mall Stadium","40 Catherwood Rd",Ithaca,NY,14850,32.06,-76.491709,42.483984,"Regal Cinemas",STANDARD
3096,1246,,Cinemapolis,"120 E. Green St.",Ithaca,NY,14850,32.41,-76.49727,42.438927,"Independent Chains",STANDARD
1733,1474,,"Colonia Theater","35 S. Broad St.",Norwich,NY,13815,20.28,-75.523436,42.529947,"Independent Chains",STANDARD
2548,6344,,"Geneva Movieplex 8","371 Hamilton Street",Geneva,NY,14456,27.22,-76.997099,42.856627,"Zurich Cinemas",STANDARD
6095,11509,,"Ohmann Theatre","William Street",Lyons,NY,14489,32.59,-76.992589,43.064294,"Independent Chains",STANDARD
1842,2820,,"Lake St. Plaza Theatres-Penn Yan","230A Lake Street Plaza","Penn Yan",NY,14527,12.93,-77.057059,42.654383,"Independent Chains",STANDARD
1617,3041,,"Oswego Cinema 7","138 W. 2nd St.",Oswego,NY,13126,22.11,-76.512587,43.455723,"Zurich Cinemas",STANDARD
1693,4140,,"Rome Cinemas - Rome, NY","1122 Erie Blvd. W.",Rome,NY,13440,15.39,-75.483241,43.224551,"Zurich Cinemas",STANDARD
5598,11052,,"Capitol Theatre","220 W. Dominick St.",Rome,NY,13440,13.95,-75.459898,43.212325,"Independent Chains",STANDARD
4955,10311,,"Canaltown Cinema","1900 State Route 31",Macedon,NY,14502,17.43,-77.287703,43.069109,"Independent Chains",STANDARD
3864,2348,,"Marquee Cinemas Orchard 14","20 Ellinwood Dr.","New Hartford",NY,13413,4.3,-75.31467,43.092571,"Marquee Cinemas",STANDARD
2817,8201,,"Regal Binghamton Stadium 12","900 Front St",Binghamton,NY,13905,19.9,-75.904922,42.133072,"Regal Cinemas",STANDARD
4881,10189,,"ART Mission and Theater","61 Prospect Ave.",Binghamton,NY,13901,33.75,-75.909962,42.103361,"Independent Chains",STANDARD
5259,7953,2708,"AMC Loews Vestal Towne Square 9","2425 Vestal Pkwy",Vestal,NY,13850,29.87,-76.010628,42.09741,"AMC Theatres",STANDARD
4620,9797,,"Tioga Theater","208 Main Street",Owego,NY,13827,24.01,-76.26148,42.104036,"Independent Chains",STANDARD
2172,349,,"The Heights Theater","210 E. 14th St.","Elmira Heights",NY,14903,33.32,-76.822645,42.12921,"Independent Chains",STANDARD
1702,4658,,"Regal Arnot Mall 10","3300 Chambers Road",Horseheads,NY,14845,22.83,-76.874153,42.159935,"Regal Cinemas",STANDARD
1856,7017,,"Salmon Run Stadium 12","21182 Salmon Run Mall Loop West",Watertown,NY,13601,8.56,-75.9554,43.9762,"Regal Cinemas",STANDARD
157,7317,2495,"AMC Loews Webster 12","2190 Empire Blvd.",Webster,NY,14580,6.51,-77.494442,43.202212,"AMC Theatres",STANDARD
674,8307,,"Regal Eastview Mall 13","70 Eastview Mall Drive",Victor,NY,14564,32.85,-77.445223,43.025132,"Regal Cinemas",STANDARD
3306,579,,"Montrose Theatre","38 Public Ave",Montrose,PA,18801,26.73,-75.877967,41.833283,"Independent Chains",STANDARD
3022,1536,,"Sayre Theatre","205 S. Elmer Ave.",Sayre,PA,18840,15.95,-76.51695,41.980579,"Independent Chains",STANDARD
1846,1118,,"Keystone Theatre","601 Main Street",Towanda,PA,18848,2.76,-76.442957,41.764248,"Independent Chains",STANDARD
3023,1241,,"Rialto Theatre","5 E. Main St.",Canton,PA,17724,25.03,-76.8499,41.6546,"Independent Chains",STANDARD
3493,1298,,"Dietrich Theater","60 E. Tioga Street",Tunkhannock,PA,18657,27.95,-75.94604,41.538461,"Independent Chains",STANDARD
1209,2472,,"Aurora Theatre","673 Main Street","East Aurora",NY,14052,33.14,-78.609705,42.767788,"Independent Chains",STANDARD
1122,3140,,"Flix Stadium 10","4901 Transit Road",Lancaster,NY,14043,31.36,-78.693995,42.878229,"Dipson Theatres",STANDARD
701,7418,,"Regal Transit Center Stadium 18","6707 Transit RD.",Williamsville,NY,14221,32.57,-78.6969,42.9535,"Regal Cinemas",STANDARD
1121,2809,,"Dipson Eastern Hills Cinema 3","4545 Transit Road",Williamsville,NY,14221,32.73,-78.692214,42.972557,"Dipson Theatres",STANDARD
4498,9600,,"Regal Walden Galleria Stadium","1 Walden Galleria Drive",Buffalo,NY,14225,17.4,-78.762553,42.914871,"Regal Cinemas",STANDARD
801,7574,,"Regal Quaker Crossing Stadium 18","3450 Amelia Drive","Orchard Park",NY,14127,32.77,-78.787599,42.791319,"Regal Cinemas",STANDARD
1210,6246,,"Dipson Batavia Mall Cinema","6 Alva PL W",Batavia,NY,14020,34.69,-78.183727,42.99923,"Independent Chains",STANDARD
362,5325,554,"AMC Maple Ridge 8","4276 Maple Rd",Amherst,NY,14226,12.35,-78.804454,42.993078,"AMC Theatres",STANDARD
1120,2808,,"Dipson Amherst Theatre","3500 Main Street",Buffalo,NY,14226,13.33,-78.816626,42.958716,"Dipson Theatres",STANDARD
314,2971,,"Dipson McKinley Mall 6","3701 McKinley Pkwy.",Hamburg,NY,14219,32.12,-78.80712,42.78315,"Dipson Theatres",STANDARD
2640,444,,"Palace Theatre Lockport","2 East Avenue",Lockport,NY,14094,25.1,-78.688274,43.170697,"Independent Chains",STANDARD
1227,7781,,"Screening Room Cinema Cafe","3131 Sheridan Dr",Amherst,NY,14226,11.91,-78.819504,42.988494,"Independent Chains",STANDARD
1124,2462,,"Dipson North Park Art Cinema","1428 Hertel Avenue",Buffalo,NY,14216,12.56,-78.855138,42.94771,"Independent Chains",STANDARD
1224,2474,,"Hamburg Palace Theatre","31 Buffalo St.",Hamburg,NY,14075,31.92,-78.829275,42.71677,"Independent Chains",STANDARD
5073,10458,,"The Stage","23 S Main St.",Warsaw,NY,14569,22.09,-78.133029,42.739823,"Independent Chains",STANDARD
702,7573,,"Regal Elmwood Center 16","2001 Elmwood Ave.",Buffalo,NY,14207,11.65,-78.876815,42.95243,"Regal Cinemas",STANDARD
5891,11310,,"Riviera Theatre","67 Webster St.","North Tonawanda",NY,14120,8.12,-78.87714,43.023752,"Independent Chains",STANDARD
2658,8510,,"Regal Niagara Falls Stadium 12","720 Builders Way","Niagara Falls",NY,14304,0.86,-78.9914,43.0864,"Regal Cinemas",STANDARD
3544,6319,,"New Angola Theatre","72 N Main St.",Angola,NY,14006,29,-79.027844,42.639696,"Independent Chains",STANDARD
1806,7045,,"Strand Theatre - Brockport","93 Main Street",Brockport,NY,14420,16.98,-77.938656,43.21455,"Independent Chains",STANDARD
1361,5234,,"Cinemark Tinseltown USA and IMAX Rochester","2291 Buffalo Rd.",Rochester,NY,14624,5.35,-77.713678,43.143165,Cinemark,STANDARD
1360,7799,,"Cinemark Movies 10 Rochester","2609 W Henrietta Rd",Rochester,NY,14623,4.25,-77.631036,43.100389,Cinemark,STANDARD
598,8590,,"Regal Henrietta Cinema Stadium 18","525 Marketplace Drive",Rochester,NY,14623,5.36,-77.625578,43.083252,"Regal Cinemas",STANDARD
1701,2098,,"Dunkirk Cinemas","10520 Bennett Rd.",Dunkirk,NY,14048,31.59,-79.310763,42.458317,"Independent Chains",STANDARD
5632,11095,,"Spotlight of Hornell","191 Main Street",Hornell,NY,14843,29.4,-77.6584,42.3264,"Independent Chains",STANDARD
1902,4770,,"Carmike 8 Allegany","1875 Cinema Dr",Allegany,NY,14706,29.86,-78.465879,42.08044,"Carmike Cinemas",STANDARD
1843,7571,,"Regal Greece Ridge Center 12","176 Greece Ridge Center Dr",Rochester,NY,14626,5.04,-77.688628,43.205192,"Regal Cinemas",STANDARD
2174,2994,,"Lakewood Cinema 8","171-3 Fairmount Ave West",Lakewood,NY,14750,24.37,-79.343541,42.097474,"Dipson Theatres",STANDARD
2175,2726,,"Chautauqua 2","500 Chautauqua Mall",Lakewood,NY,14750,34.88,-79.2985,42.098499,"Dipson Theatres",STANDARD
2543,2953,,"Little Theatres","240 East Ave.",Rochester,NY,14604,0.66,-77.597891,43.156201,"Independent Chains",STANDARD
3181,2852,,"Warren Mall Cinemas","1666 Market Street",Warren,PA,16365,33.31,-79.147718,41.896694,"Dipson Theatres",STANDARD
2176,1165,,"Bradford's Main Street Movie House","123 Main Street",Bradford,PA,16701,15.14,-78.647,41.9559,"Independent Chains",STANDARD
4577,9723,,"Dryden Theatre","900 East Ave",Rochester,NY,14607,1.58,-77.580296,43.152555,"Independent Chains",STANDARD
703,6065,,"Pittsford Cinemas","3349 Monroe Ave.",Rochester,NY,14618,5.23,-77.541712,43.103029,"Zurich Cinemas",STANDARD
673,8054,,"Regal Culver Ridge Plaza 16","2255 Ridge Road East",Irondequoit,NY,14622,3.99,-77.557136,43.203042,"Regal Cinemas",STANDARD
1832,2105,,"Crystal Cinemas","88 Victory Highway","Painted Post",NY,14870,33.37,-77.101889,42.170519,"Independent Chains",STANDARD
1355,4204,,"Cinemark Tinseltown USA Erie","1910 Rotunda Drive",Erie,PA,16509,26.59,-80.087266,42.059116,Cinemark,STANDARD
2875,1716,,"Arcadia Theater","50 Main Street",Wellsboro,PA,16901,21.64,-77.300094,41.749099,"Independent Chains",STANDARD
5214,10638,,"Victoria Theatre","222 Main St.",Blossburg,PA,16912,34.95,-77.064697,41.678398,"Independent Chains",STANDARD
1180,2466,,"Ambridge Family Theatre","645 Merchant Street",Ambridge,PA,15003,24.17,-80.22819,40.587227,"Independent Chains",STANDARD
3879,4203,,"Cinemark Center Township Marketplace","99 Wagner Road",Monaca,PA,15061,34.93,-80.307827,40.681714,Cinemark,STANDARD
6085,11497,,"The Tull Family Theater","418 Walnut Street",Sewickley,PA,15143,27.66,-80.182237,40.540354,"Independent Chains",STANDARD
5126,10532,,"Cranberry Cinemas","20111 Route 19","Cranberry Township",PA,16066,29.12,-80.105331,40.682835,"WPA/Pittsburgh Theatres",STANDARD
1589,5735,,"Carmike Plaza 6 Beaver Falls","6800 Big Beaver Blvd.","Beaver Falls",PA,15010,33.91,-80.333533,40.791396,"Carmike Cinemas",STANDARD
4803,10060,,"Cinemark Robinson Township","2100 Settlers Ridge Center Drive",Pittsburgh,PA,15205,32.81,-80.14675,40.438888,Cinemark,STANDARD
272,8535,,"Rave Motion Pictures Pittsburgh North 11","9700 Mcknight Road",Pittsburgh,PA,15237,33.98,-80.032665,40.586438,Cinemark,STANDARD
5560,11007,,"Cinemark North Hills and XD","851 Providence Blvd",Pittsburgh,PA,15237,34.98,-80.018865,40.56988,Cinemark,STANDARD
2637,3247,,"Chartiers Valley Stadium 18","1025 Washington Pike",Bridgeville,PA,15017,34.57,-80.109419,40.367238,"Phoenix Theatres",STANDARD
2295,2522,,"Pittsburgh Harris Theater","803 Liberty Aveue",Pittsburgh,PA,15222,33.62,-79.998477,40.442848,"Independent Chains",STANDARD
5525,10954,,"Row House Cinema","4115 Butler Street",Pittsburgh,PA,15201,31.69,-79.961225,40.470012,"Independent Chains",STANDARD
528,7906,,"Carmike Galleria 6","1500 Washington Rd.","Mount Lebanon",PA,15228,32.43,-80.051644,40.357076,"Carmike Cinemas",STANDARD
2128,5738,,"Carmike 10 Pittsburgh","700 Ft. Couch Rd.",Pittsburgh,PA,15241,32.66,-80.054107,40.343363,"Carmike Cinemas",STANDARD
3901,2262,,"SouthSide Works Cinema","425 Cinema Drive",Pittsburgh,PA,15203,32.25,-79.965255,40.427893,"Independent Chains",STANDARD
527,6048,,"Manor Theatre","1729 Murray Ave.",Pittsburgh,PA,15217,34.21,-79.922761,40.437137,"Independent Chains",STANDARD
526,6067,,"Waterworks Cinema 10","930 Freeport Rd.",Pittsburgh,PA,15238,27.96,-79.889728,40.488403,"WPA/Pittsburgh Theatres",STANDARD
2996,5191,2587,"AMC Loews Waterfront 22","300 Waterfront Dr.","West Homestead",PA,15120,33.57,-79.918381,40.406554,"AMC Theatres",STANDARD
624,8511,,"Regal Moraine Pointe Cinema Stadium 10","300 Moraine Pointe Plaza",Butler,PA,16001,34.91,-79.95339,40.873327,"Regal Cinemas",STANDARD
5904,11328,,"Century Square Luxury Cinemas","2001 Mountain View Dr.","West Mifflin",PA,15122,34.54,-79.94619,40.346984,"Golden Star Theaters",STANDARD
525,8595,,"Carmike Southland 9","629 Clairton Blvd.","Pleasant Hills",PA,15236,34.51,-79.94207,40.331939,"Carmike Cinemas",STANDARD
1182,2467,,"Oaks Theatre","310 Allegheny River Blvd.",Oakmont,PA,15139,33.71,-79.842925,40.515651,"Independent Chains",STANDARD
1728,6417,,"Westgate Cinema","2000 West State Street","New Castle",PA,16101,33.73,-80.3788,41.0069,"Golden Star Theaters",STANDARD
524,1653,,"Penn Hills Cinemas","76 Federal Dr.",Pittsburgh,PA,15235,27.23,-79.826918,40.462068,"Independent Chains",STANDARD
3063,8447,,"Regal Crown Center Stadium 14 ","1500 West Chestnut St.",Washington,PA,15301,31.94,-80.275812,40.157739,"Regal Cinemas",STANDARD
4067,4205,,"Cinemark Galleria at Pittsburgh Mills and IMAX","425 Pittsburgh Mills Circle",Tarentum,PA,15084,29.33,-79.795654,40.574312,Cinemark,STANDARD
2235,5752,,"Carmike 6 Steubenville","100 Mall Dr",Steubenville,OH,43952,32.39,-80.667702,40.369999,"Carmike Cinemas",STANDARD
5409,10846,,"Cinemark Monroeville Mall","200 Mall Circle Drive",Monroeville,PA,15146,28.26,-79.795274,40.428401,Cinemark,STANDARD
2574,3249,,"North Versailles Stadium 18","1701 Lincoln Highway","North Versailles",PA,15137,31.43,-79.785064,40.372118,"Phoenix Theatres",STANDARD
3557,2240,,"South Pike Cinemas","718 South Pike Road",Sarver,PA,16055,21.98,-79.72405,40.699855,"Carmike Cinemas",STANDARD
646,7567,,"Regal Cinema South Cinema 10","7420 South Ave",Youngstown,OH,44512,22.34,-80.634869,41.021105,"Regal Cinemas",STANDARD
4646,9845,,"Marquee Cinemas Highlands 14","150 Sims Circle",Triadelphia,WV,26059,29.69,-80.6134,40.0738,"Marquee Cinemas",STANDARD
1670,7434,,"Carmike Ohio Valley Mall 9","700 Banfield Rd","Saint Clairsville",OH,43950,32.47,-80.9037,40.0821,"Carmike Cinemas",STANDARD
2832,7281,,"Carmike Wynnsong 12 Delmont","401 Vine St",Delmont,PA,15626,31.43,-79.585548,40.398642,"Carmike Cinemas",STANDARD
2664,8322,,"Carmike 15 Greensburg","Westmoreland Mall, Rt. 30",Greensburg,PA,15601,33.35,-79.505297,40.297486,"Carmike Cinemas",STANDARD
1369,7644,,"Cinemark Tinseltown Boardman ","7401 Market St. #575",Boardman,OH,44512,21.32,-80.659529,41.021169,Cinemark,STANDARD
5589,11042,,"Salem Twin Cinema","2350 E State Street",Salem,OH,44460,29.07,-80.827579,40.903161,"Independent Chains",STANDARD
2649,2750,,"Salem Twin Cinema","2350 East State Street",Salem,OH,44460,29.06,-80.827711,40.903056,"Independent Chains",STANDARD
1663,4727,,"Carmike 6 Uniontown","1372 W Main St",Uniontown,PA,15401,33.17,-79.746693,39.907795,"Carmike Cinemas",STANDARD
2244,4726,,"Carmike Laurel Mall 4","1952 University Dr",Connellsville,PA,15425,34.35,-79.579903,40.028198,"Carmike Cinemas",STANDARD
4692,9902,,"Latrobe 30 Theatre & Cafe","315 Latrobe 30 Shoppes",Latrobe,PA,15650,34.36,-79.385101,40.296001,"Independent Chains",STANDARD
4124,5134,,"Regal Stadium 12 Morgantown","1001 Mountaineer Dr.",Morgantown,WV,26501,19.68,-80.000414,39.652636,"Regal Cinemas",STANDARD
2243,6813,,"Carmike 4 Indiana","2334 Oakland Ave. Ste. 4",Indiana,PA,15701,33.19,-79.181801,40.606701,"Carmike Cinemas",STANDARD
1925,1485,,"Valley Cinema 3","3 New Martinsville Plaza","New Martinsville",WV,26155,24.49,-80.854901,39.675551,"Independent Chains",STANDARD
1916,4141,,"Tygart Valley Cinema 8","7 Tygart Valley Mall",Fairmont,WV,26554,3.92,-80.194,39.425201,"Independent Chains",STANDARD
2247,4808,,"Carmike Morgantown Mall 12","1001 Mountaineer Dr.",Morgantown,WV,26501,18.52,-79.998901,39.626896,"Carmike Cinemas",STANDARD
4181,6959,,"Cinemark Meadowbrook Mall","2399 Meadowbrook Rd.",Bridgeport,WV,26330,9.39,-80.270209,39.314271,Cinemark,STANDARD
1898,2108,,"Garrett 8","19741 Garrett Highway",Oakland,MD,21550,28.83,-79.327206,39.503809,"Independent Chains",STANDARD
5079,10467,,"Country Club Cinemas","1262 Vocke Rd.",Lavale,MD,21502,28.1,-78.835047,39.63142,"WPA/Pittsburgh Theatres",STANDARD
2766,1214,,"Westwood Plaza Theatre","1910 Minno Dr.",Johnstown,PA,15905,22.02,-78.958406,40.323864,"Independent Chains",STANDARD
1920,2295,,"Richland Cinemas","420 Theatre Drive",Johnstown,PA,15904,18.9,-78.844135,40.274665,"Independent Chains",STANDARD
1886,281,,"Pitt Theatre","134 E Pitt St.",Bedford,PA,15522,31.39,-78.502451,40.01898,"Independent Chains",STANDARD
1635,7431,,"Carmike 8 Altoona","600 Logan Valley Mall",Altoona,PA,16602,29.92,-78.413919,40.469333,"Carmike Cinemas",STANDARD
2127,7280,,"Carmike Park Hills Plaza 7","208 Park Hills Plaza",Altoona,PA,16602,29.59,-78.406259,40.468867,"Carmike Cinemas",STANDARD
5774,11214,,"Carmike 12 Altoona","234 Convention Center Drive",Altoona,PA,16602,28.85,-78.400136,40.457728,"Carmike Cinemas",STANDARD
2821,2586,,"Star Movie Theatre","137 N. Washington St.","Berkeley Springs",WV,25411,33.96,-78.227263,39.627633,"Independent Chains",STANDARD
2242,6715,,"Carmike Cinema 5","690 Shaffer Rd.","Du Bois",PA,15801,26.05,-78.746002,41.114399,"Carmike Cinemas",STANDARD
5168,10575,,"Carmike Clarion 7","Clarion Mall 22631",Clarion,PA,16214,14.23,-79.366997,41.205002,"Carmike Cinemas",STANDARD
6152,9940,,"The Movies at Cranberry","6945 US 322",Cranberry,PA,16319,29.8,-79.716185,41.353272,"Independent Chains",STANDARD
2372,1848,,"Huntingdon Cinema Clifton 5","717 Washington St.",Huntingdon,PA,16652,20.59,-78.0135,40.4861,"Independent Chains",STANDARD
4495,9596,,"Shenango Valley Cinemas","2996 East State Street",Hermitage,PA,16148,32.92,-80.454748,41.230365,"WPA/Pittsburgh Theatres",STANDARD
4587,9739,,"Hermitage Cinema 8","2461 E. State St.",Hermitage,PA,16148,32.8,-80.464704,41.235512,"WPA/Pittsburgh Theatres",STANDARD
695,7740,,"Regal Austintown Plaza 10","6020 Mahoning Ave.",Youngstown,OH,44515,21.54,-80.776613,41.101282,"Regal Cinemas",STANDARD
645,1902,,"Encore Cinema","930 Great East Plaza",Niles,OH,44446,29.16,-80.746844,41.213622,"Independent Chains",STANDARD
644,7895,,"Regal Boulevard Center Stadium 14","24 Boulevard Centre",Niles,OH,44446,29.4,-80.748315,41.217936,"Regal Cinemas",STANDARD
4698,9910,,"The Movies at Meadville","11185 Perry Hwy",Meadville,PA,16335,25.3,-80.204444,41.619631,"Independent Chains",STANDARD
2786,2848,,"Garrettsville Cinema","8001 State Street",Garrettsville,OH,44231,32.23,-81.100503,41.28751,"Independent Chains",STANDARD
2234,4771,,"Carmike Ashtabula Mall 6","3315 N Ridge East Unit 400",Ashtabula,OH,44004,34.13,-80.753304,41.879002,"Carmike Cinemas",STANDARD
4482,9579,,"College 9 Theatre","3031 Carnegie Drive","State College",PA,16803,33.98,-77.92657,40.810115,"UEC Theatres",STANDARD
3871,2316,,"Premiere Theatre 12","125 Premiere Drive","State College",PA,16801,27.27,-77.801079,40.84029,"UEC Theatres",STANDARD
1638,8210,,"Carmike 7 Chambersburg","900 Chambersburg Mall",Chambersburg,PA,17202,32.67,-77.576397,39.956658,"Carmike Cinemas",STANDARD
2373,389,,"Roxy Theatre Lock Haven","314 E. Main St.","Lock Haven",PA,17745,34.01,-77.442072,41.136694,"Independent Chains",STANDARD
3143,525,,"Campus Theater","413 Market Street",Lewisburg,PA,17837,30.83,-76.886407,40.963421,"Independent Chains",STANDARD
5329,10766,,"Digiplex Cinema Center - Williamsport","300 W. Fourth St.",Williamsport,PA,17701,20.22,-77.0066,41.2401,"Carmike Cinemas",STANDARD
4038,3216,,"Cinema Center of Selinsgrove","Routes 11 ",Selinsgrove,PA,17870,31.76,-76.8621,40.805,"Carmike Cinemas",STANDARD
3815,2304,,"Regal Williamsport Lycoming Mall 12","965 Lycoming Mall Circle",Pennsdale,PA,17756,31.29,-76.827199,41.237562,"Regal Cinemas",STANDARD
124,3172,,"Digiplex Cinema Center ","3431 Simpson Ferry Road","Camp Hill",PA,17011,23.54,-76.939391,40.227187,"Carmike Cinemas",STANDARD
3474,1745,,"Midtown Cinema","250 Reily Street",Harrisburg,PA,17102,34.5,-76.8913,40.2711,"Independent Chains",STANDARD
4823,10097,,"Flagship Cinemas Premium","4950 Carlisle Pike",Mechanicsburg,PA,17050,24.9,-76.969206,40.235707,"Carmike Cinemas",STANDARD
4430,9502,,"Great Escape 14","3501 Paxton Street",Harrisburg,PA,17111,32.21,-76.831027,40.252387,"Regal Cinemas",STANDARD
2865,5667,,"Regal Harrisburg Stadium 14","1500 Caughey Dr",Harrisburg,PA,17112,30.93,-76.835305,40.30298,"Regal Cinemas",STANDARD
3075,6331,,"Colonial Park 4","1 Colonial Park Mall",Harrisburg,PA,17109,30.23,-76.820097,40.301689,"Independent Chains",STANDARD
1013,2437,,"Elks Theatre","Emaus ",Middletown,PA,17057,34.91,-76.731666,40.195014,"Independent Chains",STANDARD
2973,2042,,"Cocoaplex Cinema","1130 Cocoa Ave",Hershey,PA,17033,30.71,-76.648949,40.270247,"Independent Chains",STANDARD
3112,522,,"Carlisle Theatre","44 West High Street",Carlisle,PA,17013,31.6,-77.190456,40.201236,"Independent Chains",STANDARD
5756,11198,,"Carlisle Commons Movies 8","250 Noble Blvd",Carlisle,PA,17013,34.51,-77.196604,40.190457,"R/C Theatres",STANDARD
1444,5641,,"Regal West Manchester Mall 13","1800 Loucks Road",York,PA,17408,34.61,-76.77171,39.971366,"Regal Cinemas",STANDARD
2934,2235,,"Movietown Theatre","700 N Hanover St",Elizabethtown,PA,17022,32.97,-76.6098,40.1609,"Independent Chains",STANDARD
5881,11300,,"SMALL STAR Art house","232 West Market Street",York,PA,17401,23.33,-76.733113,39.960416,"Independent Chains",STANDARD
5720,11162,,"Flagship Cinemas Palmyra","2 N. Londonderry Square",Palmyra,PA,17078,34.27,-76.570438,40.320435,"Flagship Cinemas",STANDARD
4914,10231,,"Queensgate Stadium 13","2067 Springwood Road",York,PA,17403,33.58,-76.693352,39.941498,"Frank Theatres",STANDARD
3609,1752,,"South York Plaza Cinemas 4","217 Pauline Drive",York,PA,17402,32.8,-76.682618,39.933261,"Independent Chains",STANDARD
3121,4988,,"R/C Hanover Movies","380 Eisenhower Dr.",Hanover,PA,17331,26.45,-76.989559,39.8226642,"R/C Theatres",STANDARD
4233,8543,,"Great Escape Lebanon Valley Stadium 10","2200 Lebanon Valley Mall Rd.",Lebanon,PA,17042,28.08,-76.452838,40.341638,"Regal Cinemas",STANDARD
4193,4985,,"R/C Gateway Theatre 8","20 Presidential Circle",Gettysburg,PA,17325,22.59,-77.191067,39.843881,"R/C Theatres",STANDARD
1014,227,,"Glen Theatre","37 Manchester Street","Glen Rock",PA,17327,31.25,-76.73008,39.790971,"Independent Chains",STANDARD
4200,2275,,"Gettysburg Village Cinema","1865 Gettysburg Drive",Gettysburg,PA,17325,18.93,-77.20082,39.790724,"Frank Theatres",STANDARD
2386,8308,,"Regal Manor Stadium 16","1246 Millersville Pike",Lancaster,PA,17603,25.47,-76.324189,40.0264,"Regal Cinemas",STANDARD
5437,10878,,Zoetropolis,"315 W. James St.",Lancaster,PA,17603,26.52,-76.3124,40.0453,"Independent Chains",STANDARD
4535,9667,,"Penn Cinema","541 Airport Rd.",Lititz,PA,17543,30.82,-76.291959,40.114356,"Independent Chains",STANDARD
1723,2293,,"Cinema Center of Bloomsburg","1879 Columbia Blvd.",Bloomsburg,PA,17815,32.91,-76.4231,41.0084,"Carmike Cinemas",STANDARD
5051,10431,,"Schuylkill Mall Theatre","670 Schuylkill Mall",Frackville,PA,17931,34.16,-76.225119,40.766584,"Independent Chains",STANDARD
498,4512,,"Kendig Square Movies 6","2600 N. Willow Street Pike","Willow Street",PA,17584,32.61,-76.282282,39.985429,"Independent Chains",STANDARD
3978,1421,,"Ephrata Main Theatre","124 East Main Street",Ephrata,PA,17522,34.36,-76.1737,40.1757,"Independent Chains",STANDARD
5267,10700,,"Fox Berkshire","800 Berkshire Boulevard",Wyomissing,PA,19610,2.9,-75.9677,40.3509,"Fox Theatres",STANDARD
2241,6348,,"Cinema Center Fairgrounds Sq.","3050 N 5th St. Hwy.",Reading,PA,19605,3.48,-75.930765,40.379757,"Carmike Cinemas",STANDARD
4550,9686,,"R/C Reading Movies 11 & IMAX","30 N 2nd Street",Reading,PA,19601,0.88,-75.934286,40.336652,"R/C Theatres",STANDARD
4477,9571,,"Goggleworks Theatre","201 Washington St.",Reading,PA,19601,0.87,-75.933852,40.336797,"Independent Chains",STANDARD
844,6116,,"Fox East Theatre","4350 Perkiomen Ave.",Reading,PA,19606,3.06,-75.868661,40.309413,"Fox Theatres",STANDARD
5120,10523,,"Carmike 12 Stowe","110 Upland Square Dr",Stowe,PA,19464,33.15,-75.658085,40.268358,"Carmike Cinemas",STANDARD
4946,10301,,"Leitersburg Cinemas","20145 Leitersburg pike",Hagerstown,MD,21742,34.2,-77.667407,39.68432,"Independent Chains",STANDARD
1845,5662,,"Regal Martinsburg Stadium 10","950 Foxcroft Ave.",Martinsburg,WV,25401,32.7,-77.984938,39.447088,"Regal Cinemas",STANDARD
3027,4664,,"Regal Valley Mall Stadium 16","17301 Valley Mall Rd.",Hagerstown,MD,21740,28.16,-77.772582,39.62384,"Regal Cinemas",STANDARD
3579,4665,,"Westview Stadium 16 & IMAX","5243 Buckeystown Pike",Frederick,MD,21704,30.16,-77.413058,39.374027,"Regal Cinemas",STANDARD
487,7145,,"Regal Westminister 9","400 Center St.",Westminster,MD,21157,17.69,-76.983707,39.577189,"Regal Cinemas",STANDARD
1692,7424,,"Regal Hunt Valley Stadium 12","11511 McCormick Road","Hunt Valley",MD,21030,29.21,-76.656053,39.499447,"Regal Cinemas",STANDARD
5444,10884,,"The Pikes Theatre","921 Reisterstown Rd.",Pikesville,MD,21208,29,-76.790481,39.406337,"Independent Chains",STANDARD
2135,5312,804,"AMC Owings Mills 17","10100 Mill Run Circle","Owings Mills",MD,21117,29.11,-76.788847,39.405229,"AMC Theatres",STANDARD
5495,10957,,"Cinemark Towson and XD","111 East Joppa Road",Towson,MD,21286,30.3,-76.600516,39.402607,Cinemark,STANDARD
490,4047,,"Senator Theatre","5904 York Rd.",Baltimore,MD,21212,32.45,-76.6099,39.3636,"Independent Chains",STANDARD
486,5310,805,"AMC Security Square 8","1717 Rolling Road",Baltimore,MD,21244,33.57,-76.750939,39.307597,"AMC Theatres",STANDARD
135,2662,,"Rotunda Cinemas","711 W. 40th St.",Baltimore,MD,21211,34.55,-76.630776,39.336298,"Independent Chains",STANDARD
489,7049,,"Beltway Movies","7660 Bel Air Rd.",Baltimore,MD,21236,31.61,-76.519446,39.367476,"Independent Chains",STANDARD
5978,11414,,"Horizon Cinemas Fallston","2315 Belair Road",Fallston,MD,21047,31.32,-76.390931,39.49218,"Horizon Cinemas",STANDARD
3533,6842,,"Flagship Cinemas 7 Churchville","2408 E.Churchville Rd.","Bel Air",MD,21015,24.46,-76.275727,39.556571,"Carmike Cinemas",STANDARD
685,8845,,"Regal Bel Air Cinema Stadium 14","409 Constant Friendship Blvd.",Abingdon,MD,21009,28.29,-76.316528,39.455217,"Regal Cinemas",STANDARD
700,8817,2817,"AMC Loews White Marsh 16","8141 Honeygo Blvd",Baltimore,MD,21236,28.68,-76.46464,39.370702,"AMC Theatres",STANDARD
4824,10098,,"East Point Movies 10","7938 Eastern Avenue",Baltimore,MD,21224,31.9,-76.509156,39.297946,"Independent Chains",STANDARD
485,2925,,"The Charles","1711 N. Charles St.",Baltimore,MD,21201,29.78,-76.616313,39.309232,"Independent Chains",STANDARD
2702,6169,,"Berwick Theatre","110 E. Front St.",Berwick,PA,18603,34.65,-76.233398,41.054798,"Independent Chains",STANDARD
2180,4660,,"Regal Hazleton Stadium 10","400 Laurel Mall",Hazleton,PA,18201,27.96,-76.011363,40.984657,"Regal Cinemas",STANDARD
4194,4987,,"R/C Wilkes Barre Movies 14","24 East Northampton St","Wilkes-Barre Township",PA,18702,34.74,-75.883934,41.243661,"R/C Theatres",STANDARD
2024,1498,,"Angela Triplex","113 E Phillips St.",Coaldale,PA,18218,34.13,-75.904643,40.823784,"Independent Chains",STANDARD
2871,4206,,"Cinemark 20","40 Glenmaura National Blvd",Moosic,PA,18507,34.86,-75.679364,41.360401,Cinemark,STANDARD
725,6332,,"P and G Chester 5 Theatre","21 Washington Square",Chestertown,MD,21620,28.81,-76.069854,39.230421,"Independent Chains",STANDARD
2181,4718,,"Sun & Surf Cinema 8","14301 Coastal Highway","Ocean City",MD,21842,13.79,-75.053004,38.448918,"Fox Theatres",STANDARD
3216,6736,,"Fox Gold Coast Mall","11301 Coastal Hwy","Ocean City",MD,21842,13.17,-75.058122,38.420194,"Fox Theatres",STANDARD
2995,507,,"Clayton Theatre","900 Main St.",Dagsboro,DE,19939,10.86,-75.247324,38.551619,"Independent Chains",STANDARD
4128,4666,,"Regal Salisbury Stadium 16 & RPX","2322 North Salisbury Blvd.",Salisbury,MD,21801,30.17,-75.565282,38.396587,"Regal Cinemas",STANDARD
2383,7179,,"Premier Cinemas at Easton","210 Marlboro Ave",Easton,MD,21601,26,-76.079697,38.7803,"Independent Chains",STANDARD
843,6461,,"Premier Cinemas Cambridge 4","2759 Dorchester Square",Cambridge,MD,21613,34.46,-76.054772,38.553352,"Independent Chains",STANDARD
3898,4667,,"Regal Gallery Place Stadium 14","707 Seventh Street NW",Washington,DC,20001,0.99,-77.021728,38.898534,"Regal Cinemas",STANDARD
3581,7640,2654,"AMC Loews Georgetown 14","3111 K Street N.W.",Washington,DC,20007,1.23,-77.06265,38.902721,"AMC Theatres",STANDARD
5494,10950,,"Angelika Pop-Up at Union Market","550 Penn St",Washington,DC,20002,2.45,-76.99621,38.910025,"Reading International, Inc",STANDARD
207,8452,2767,"AMC Loews Uptown 1","3426 Connecticut Ave. NW",Washington,DC,20008,2.61,-77.058405,38.934945,"AMC Theatres",STANDARD
369,5313,362,"AMC Courthouse Plaza 8","2150 Clarendon Blvd",Arlington,VA,22201,2.52,-77.085165,38.890179,"AMC Theatres",STANDARD
1606,5629,,"Regal Potomac Yard Stadium 16","3575 Jefferson Davis Hwy.",Alexandria,VA,22305,4.35,-77.048128,38.837369,"Regal Cinemas",STANDARD
204,7322,2798,"AMC Loews Shirlington 7","2772 South Randolph St.",Arlington,VA,22206,4.84,-77.089101,38.841279,"AMC Theatres",STANDARD
2532,8881,,"Regal Ballston Common Stadium 12","671 N. Glebe Road",Arlington,VA,22203,4.12,-77.111583,38.878807,"Regal Cinemas",STANDARD
206,7810,886,"AMC Mazza Gallerie","5300 Wisconsin Ave., NW",Washington,DC,20015,4.73,-77.0848,38.959,"AMC Theatres",STANDARD
205,6579,,"The Avalon Theatre","5612 Connecticut Ave. NW",Washington,DC,20015,4.91,-77.076103,38.965336,"Independent Chains",STANDARD
3225,8913,337,"AMC Hoffman Center 22","206 Swamp Fox Rd.",Alexandria,VA,22314,6.94,-77.070537,38.802379,"AMC Theatres",STANDARD
5701,11138,339,"AMC Rivertowne 12","6075 Oxon Hill Rd.","Oxon Hill",MD,20745,7.35,-76.9801,38.8044,"AMC Theatres",STANDARD
4701,9915,,"Marlow 6 Theatre","3899 Branch Ave.","Temple Hills",MD,20748,6.77,-76.944863,38.835906,"Phoenix Theatres",STANDARD
3844,4911,,"Regal Majestic Cinema 20 & IMAX","900 Ellsworth Drive","Silver Spring",MD,20910,6.72,-77.025409,38.996574,"Regal Cinemas",STANDARD
3859,790,,"AFI Silver Theatre Cultural Center","8633 Colesville Rd","Silver Spring",MD,20910,6.72,-77.025543,38.996583,"Independent Chains",STANDARD
4370,9403,,"Regal Hyattsville Royale Stadium 14","6505 America Blvd",Hyattsville,MD,20782,6.7,-76.951885,38.968549,"Regal Cinemas",STANDARD
502,7741,,"Regal Bethesda","7272 Wisconsin Ave.",Bethesda,MD,20814,6.36,-77.093731,38.98206,"Regal Cinemas",STANDARD
5977,11413,,"AMC Wheaton Mall 9","11006 Veirs Mall Road",Wheaton,MD,20902,9.39,-77.051964,39.035522,"AMC Theatres",STANDARD
4135,4910,,"Regal Kingstowne Stadium 16","5910 Kingstowne Towne Center",Alexandria,VA,22315,10.31,-77.138325,38.772012,"Regal Cinemas",STANDARD
136,7957,2816,"AMC Loews Center Park 8","4001 Powder Mill Rd.",Beltsville,MD,20705,11.5,-76.937399,39.046142,"AMC Theatres",STANDARD
3887,4162,2307,"AMC Magic Johnson Capital Center 12","800 Shoppers Way",Largo,MD,20774,10.34,-76.8073,38.8863,"AMC Theatres",STANDARD
5506,10970,,"Springfield Town Center 12","6859 Springfield Town Center",Springfield,VA,22150,11.43,-77.1774,38.7738,"Regal Cinemas",STANDARD
479,4103,,"Old Greenbelt Theatre","129 Centerway",Greenbelt,MD,20770,11.26,-76.876002,39.001379,"Independent Chains",STANDARD
4108,9046,366,"AMC Tysons Corner 16","7850 Tysons Corner Center","West McLean",VA,22102,9.7,-77.218936,38.917734,"AMC Theatres",STANDARD
5222,10646,,"Angelika Film Center-Mosaic","2911 District Avenue",Fairfax,VA,22031,10.37,-77.229466,38.872027,"Reading International, Inc",STANDARD
1458,9073,,"Regal Rockville Center Stadium 13","199 E. Montgomery Ave.",Rockville,MD,20850,14.02,-77.149923,39.083972,"Regal Cinemas",STANDARD
2670,6528,,"Cinema Arts Theatre","9650 Main St",Fairfax,VA,22031,13.31,-77.2758,38.8418,"Independent Chains",STANDARD
5343,10780,,"Xscape 14","7710 Matapeake Business Drive",Brandywine,MD,20613,18.01,-76.8715,38.6749,"Independent Chains",STANDARD
5547,10988,,"Laurel Mall St. 12","14716 Baltimore Ave",Laurel,MD,20707,16.59,-76.8558,39.0928,"Regal Cinemas",STANDARD
201,9086,2777,"AMC Loews Rio Cinemas 18","9811 Washingtonian Blvd",Gaithersburg,MD,20878,17.17,-77.197527,39.11619,"AMC Theatres",STANDARD
